site_id,dataset,start_year,end_year,file,is_dup,IGBP,elevation,lat,long,site_name,koppen_sub,koppen_main,koppen_name,koppen_main_name,c3c4,c4_percent,filename,size,country,record_count,site_IGBP,site_koppen,start_time,end_time,recorded_day_count,recorded_day_percentage,monthly_data_available,hemisphere_NS,lat_band,site_hemisphere_quadrant,GPP_var,GPP_var_bins,GPP_mean,GPP_mean_bins
AR-SLu,FLUXNET,2009,2011,FLX_AR-SLu_FLUXNET2015_FULLSET_MM_2009-2011_1-4.csv,False,MF,,-33.4648,-66.4598,San Luis,7,2,BSk,Arid,C3,67.08,data_full_half_hourly_raw_v0_1_AR-SLu.csv,9785735.0,AR,22128.0,MF,Arid,2009-12-21 00:00:00,2011-03-26 23:30:00,461.0,1.0,Yes,South,lat_band_2,South-West,88.1484333695644,gpp_var_bin_23,6.896597782312003,gpp_mean_bin_25
AR-Vir,FLUXNET,2009,2012,FLX_AR-Vir_FLUXNET2015_FULLSET_MM_2009-2012_1-4.csv,False,ENF,,-28.2395,-56.1886,Virasoro,14,3,Cfa,Temperate,C3,8.75,data_full_half_hourly_raw_v0_1_AR-Vir.csv,14564015.0,AR,33984.0,ENF,Temperate,2010-02-13 00:00:00,2012-06-13 23:30:00,708.0,0.83099,Yes,South,lat_band_2,South-West,195.83334507800032,gpp_var_bin_25,10.679074325417844,gpp_mean_bin_25
AT-Neu,FLUXNET,2002,2012,FLX_AT-Neu_FLUXNET2015_FULLSET_MM_2002-2012_1-4.csv,False,GRA,970.0,47.11667,11.3175,Neustift,26,4,Dfb,Cold,C3,0.0,data_full_half_hourly_raw_v0_1_AT-Neu.csv,80674656.0,AT,188112.0,GRA,Cold,2002-01-01 00:00:00,2012-12-31 23:30:00,3919.0,0.97536,Yes,North,lat_band_4,North-East,146.69834721401224,gpp_var_bin_25,6.63636119563821,gpp_mean_bin_25
AU-ASM,FLUXNET,2010,2014,FLX_AU-ASM_FLUXNET2015_FULLSET_MM_2010-2014_2-4.csv,False,SAV,,-22.283,133.249,Alice Springs,4,2,BWh,Arid,C3,100.0,data_full_half_hourly_raw_v0_1_AU-ASM.csv,32588027.0,AU,74496.0,SAV,Arid,2010-09-03 00:00:00,2014-12-31 23:30:00,1552.0,0.98166,Yes,South,lat_band_2,South-East,3.3271181917540527,gpp_var_bin_2,0.7477555583252793,gpp_mean_bin_2
AU-Ade,FLUXNET,2007,2009,FLX_AU-Ade_FLUXNET2015_FULLSET_MM_2007-2009_1-4.csv,False,WSA,,-13.0769,131.1178,Adelaide River,3,1,Aw,Tropical,C3,79.57,data_full_half_hourly_raw_v0_1_AU-Ade.csv,10951700.0,AU,26640.0,WSA,Tropical,2007-10-17 00:00:00,2009-05-22 23:30:00,555.0,0.95034,Yes,South,lat_band_3,,,,,
AU-Cpr,FLUXNET,2010,2014,FLX_AU-Cpr_FLUXNET2015_FULLSET_MM_2010-2014_2-4.csv,False,SAV,,-34.0021,140.5891,Calperum,5,2,BWk,Arid,C3,8.91,data_full_half_hourly_raw_v0_1_AU-Cpr.csv,31569504.0,AU,72384.0,SAV,Arid,2010-08-01 00:00:00,2014-12-31 23:30:00,1508.0,0.93432,Yes,South,lat_band_2,,,,,
AU-Cum,FLUXNET,2012,2014,FLX_AU-Cum_FLUXNET2015_FULLSET_MM_2012-2014_2-4.csv,False,EBF,,-33.61518,150.72362,Cumberland Plain,14,3,Cfa,Temperate,C3,40.82,data_full_half_hourly_raw_v0_1_AU-Cum.csv,16483369.0,AU,37728.0,EBF,Temperate,2012-10-19 00:00:00,2014-12-31 23:30:00,786.0,0.97761,Yes,South,lat_band_2,South-East,24.540869285639964,gpp_var_bin_8,3.2105951973070397,gpp_mean_bin_12
AU-DaP,FLUXNET,2007,2013,FLX_AU-DaP_FLUXNET2015_FULLSET_MM_2007-2013_2-4.csv,False,GRA,,-14.0633,131.3181,Daly River Savanna,3,1,Aw,Tropical,C3,97.83,data_full_half_hourly_raw_v0_1_AU-DaP.csv,39509404.0,AU,92544.0,GRA,Tropical,2007-09-19 00:00:00,2013-09-07 23:30:00,1928.0,0.884,Yes,South,lat_band_3,South-East,56.128137179706854,gpp_var_bin_17,3.2682226506310514,gpp_mean_bin_13
AU-DaS,FLUXNET,2008,2014,FLX_AU-DaS_FLUXNET2015_FULLSET_MM_2008-2014_2-4.csv,False,SAV,,-14.1593,131.3881,Daly River Cleared,3,1,Aw,Tropical,C3,97.83,data_full_half_hourly_raw_v0_1_AU-DaS.csv,49712116.0,AU,115392.0,SAV,Tropical,2008-01-01 00:00:00,2014-12-31 23:30:00,2404.0,0.94016,Yes,South,lat_band_3,South-East,38.299233376684256,gpp_var_bin_12,4.203184754142401,gpp_mean_bin_19
AU-Dry,FLUXNET,2008,2014,FLX_AU-Dry_FLUXNET2015_FULLSET_MM_2008-2014_2-4.csv,False,SAV,,-15.2588,132.3706,Dry River,3,1,Aw,Tropical,C3,100.0,data_full_half_hourly_raw_v0_1_AU-Dry.csv,34886065.0,AU,80688.0,SAV,Tropical,2008-09-01 00:00:00,2014-12-31 23:30:00,1681.0,0.72676,Yes,South,lat_band_3,,,,,
AU-Emr,FLUXNET,2011,2013,FLX_AU-Emr_FLUXNET2015_FULLSET_MM_2011-2013_1-4.csv,False,GRA,,-23.8587,148.4746,Emerald,6,2,BSh,Arid,mix,35.64,data_full_half_hourly_raw_v0_1_AU-Emr.csv,17707070.0,AU,40896.0,GRA,Arid,2011-06-10 00:00:00,2013-12-31 23:30:00,852.0,0.91026,Yes,South,lat_band_2,South-East,7.893428643909964,gpp_var_bin_4,1.2375848763937793,gpp_mean_bin_4
AU-Fog,FLUXNET,2006,2008,FLX_AU-Fog_FLUXNET2015_FULLSET_MM_2006-2008_1-4.csv,False,WET,,-12.5452,131.3072,Fogg Dam,3,1,Aw,Tropical,C3,0.0,data_full_half_hourly_raw_v0_1_AU-Fog.csv,19426192.0,AU,45264.0,WET,Tropical,2006-02-07 00:00:00,2008-10-31 23:30:00,943.0,0.94489,Yes,South,lat_band_3,,,,,
AU-GWW,FLUXNET,2013,2014,FLX_AU-GWW_FLUXNET2015_FULLSET_MM_2013-2014_1-4.csv,False,SAV,,-30.1913,120.6541,"Great Western Woodlands, Western Australia, Australia",4,2,BWh,Arid,C3,0.0,data_full_half_hourly_raw_v0_1_AU-GWW.csv,12879106.0,AU,32640.0,SAV,Arid,2013-01-01 00:00:00,2014-12-31 23:30:00,680.0,0.93151,No,South,lat_band_2,,,,,
AU-Gin,FLUXNET,2011,2014,FLX_AU-Gin_FLUXNET2015_FULLSET_MM_2011-2014_1-4.csv,False,WSA,,-31.3764,115.7138,Gingin,8,3,Csa,Temperate,C3,0.0,data_full_half_hourly_raw_v0_1_AU-Gin.csv,21370030.0,AU,48672.0,WSA,Temperate,2011-10-14 00:00:00,2014-12-31 23:30:00,1014.0,0.86298,Yes,South,lat_band_2,South-East,16.489217384525244,gpp_var_bin_5,3.0244144812828737,gpp_mean_bin_10
AU-How,FLUXNET,2001,2014,FLX_AU-How_FLUXNET2015_FULLSET_MM_2001-2014_1-4.csv,False,WSA,,-12.4943,131.1523,Howard Springs,3,1,Aw,Tropical,C3,0.0,data_full_half_hourly_raw_v0_1_AU-How.csv,82518393.0,AU,196752.0,WSA,Tropical,2001-09-07 00:00:00,2014-12-31 23:30:00,4099.0,0.84272,Yes,South,lat_band_3,South-East,58.55290226379045,gpp_var_bin_19,5.172234785521875,gpp_mean_bin_22
AU-Lox,FLUXNET,2008,2009,FLX_AU-Lox_FLUXNET2015_FULLSET_MM_2008-2009_1-4.csv,False,DBF,,-34.4704,140.6551,Loxton,5,2,BWk,Arid,C3,8.91,data_full_half_hourly_raw_v0_1_AU-Lox.csv,5581061.0,AU,14064.0,DBF,Arid,2008-08-20 00:00:00,2009-06-08 23:30:00,293.0,1.0,No,South,lat_band_2,,,,,
AU-RDF,FLUXNET,2011,2013,FLX_AU-RDF_FLUXNET2015_FULLSET_MM_2011-2013_1-4.csv,False,WSA,,-14.5636,132.4776,"Red Dirt Melon Farm, Northern Territory",3,1,Aw,Tropical,C3,92.21,data_full_half_hourly_raw_v0_1_AU-RDF.csv,12899946.0,AU,29808.0,WSA,Tropical,2011-09-24 00:00:00,2013-07-21 23:30:00,621.0,0.93103,Yes,South,lat_band_3,South-East,22.187021855084318,gpp_var_bin_8,1.684491361949812,gpp_mean_bin_5
AU-Rig,FLUXNET,2011,2014,FLX_AU-Rig_FLUXNET2015_FULLSET_MM_2011-2014_2-4.csv,False,GRA,,-36.6499,145.5759,Riggs Creek,14,3,Cfa,Temperate,C3,1.91,data_full_half_hourly_raw_v0_1_AU-Rig.csv,27889000.0,AU,63648.0,GRA,Temperate,2011-01-01 00:00:00,2014-12-31 23:30:00,1326.0,0.9076,Yes,South,lat_band_2,South-East,27.336041031893288,gpp_var_bin_9,2.666777357073278,gpp_mean_bin_8
AU-Rob,FLUXNET,2014,2014,FLX_AU-Rob_FLUXNET2015_FULLSET_MM_2014-2014_1-4.csv,False,EBF,,-17.1175,145.6301,"Robson Creek, Queensland, Australia",11,3,Cwa,Temperate,C3,96.32,data_full_half_hourly_raw_v0_1_AU-Rob.csv,6619060.0,AU,17520.0,EBF,Temperate,2014-01-01 00:00:00,2014-12-31 23:30:00,365.0,1.0,No,South,lat_band_3,,,,,
AU-Stp,FLUXNET,2008,2014,FLX_AU-Stp_FLUXNET2015_FULLSET_MM_2008-2014_1-4.csv,False,GRA,,-17.1507,133.3502,Sturt Plains,6,2,BSh,Arid,C4,98.51,data_full_half_hourly_raw_v0_1_AU-Stp.csv,43106187.0,AU,100176.0,GRA,Arid,2008-08-28 00:00:00,2014-12-31 23:30:00,2087.0,0.90073,Yes,South,lat_band_3,South-East,7.381279903537782,gpp_var_bin_4,1.0676155024756429,gpp_mean_bin_3
AU-TTE,FLUXNET,2012,2014,FLX_AU-TTE_FLUXNET2015_FULLSET_MM_2012-2014_1-4.csv,False,GRA,,-22.287,133.64,Ti Tree East,4,2,BWh,Arid,C4,100.0,data_full_half_hourly_raw_v0_1_AU-TTE.csv,18551559.0,AU,42576.0,GRA,Arid,2012-07-18 00:00:00,2014-12-31 23:30:00,887.0,0.98885,Yes,South,lat_band_2,South-East,1.6092295424734702,gpp_var_bin_1,0.02148426693442316,gpp_mean_bin_1
AU-Tum,FLUXNET,2001,2014,FLX_AU-Tum_FLUXNET2015_FULLSET_MM_2001-2014_2-4.csv,False,EBF,1200.0,-35.6566,148.1517,Tumbarumba,15,3,Cfb,Temperate,C3,0.01,,,,,,,,,,,Yes,South,lat_band_2,,,,,
AU-Wac,FLUXNET,2005,2008,FLX_AU-Wac_FLUXNET2015_FULLSET_MM_2005-2008_1-4.csv,False,EBF,,-37.4259,145.1878,Wallaby Creek,15,3,Cfb,Temperate,C3,0.17,data_full_half_hourly_raw_v0_1_AU-Wac.csv,21467041.0,AU,49392.0,EBF,Temperate,2005-08-26 00:00:00,2008-12-31 23:30:00,1029.0,0.84069,Yes,South,lat_band_2,,,,,
AU-Whr,FLUXNET,2011,2014,FLX_AU-Whr_FLUXNET2015_FULLSET_MM_2011-2014_2-4.csv,False,EBF,,-36.6732,145.0294,Whroo,7,2,BSk,Arid,C3,1.91,data_full_half_hourly_raw_v0_1_AU-Whr.csv,23069619.0,AU,54048.0,EBF,Arid,2011-12-02 00:00:00,2014-12-31 23:30:00,1126.0,1.0,Yes,South,lat_band_2,South-East,20.335783954887766,gpp_var_bin_7,3.4362178387359394,gpp_mean_bin_14
AU-Wom,FLUXNET,2010,2014,FLX_AU-Wom_FLUXNET2015_FULLSET_MM_2010-2014_1-4.csv,False,EBF,705.0,-37.4222,144.0944,Wombat,15,3,Cfb,Temperate,C3,1.05,data_full_half_hourly_raw_v0_1_AU-Wom.csv,36264406.0,AU,83856.0,EBF,Temperate,2010-01-23 00:00:00,2014-12-31 23:30:00,1747.0,0.9684,Yes,South,lat_band_2,South-East,58.45324403030258,gpp_var_bin_18,5.773284091704827,gpp_mean_bin_24
AU-Ync,FLUXNET,2012,2014,FLX_AU-Ync_FLUXNET2015_FULLSET_MM_2012-2014_1-4.csv,False,GRA,,-34.9893,146.2907,Jaxa,7,2,BSk,Arid,mix,14.47,data_full_half_hourly_raw_v0_1_AU-Ync.csv,11644158.0,AU,26592.0,GRA,Arid,2012-10-25 00:00:00,2014-12-31 23:30:00,554.0,0.69424,Yes,South,lat_band_2,,,,,
BR-Sa1,FLUXNET,2002,2011,FLX_BR-Sa1_FLUXNET2015_FULLSET_MM_2002-2011_1-4.csv,False,EBF,88.0,-2.85667,-54.95889,Santarem-Km67-Primary Forest,2,1,Am,Tropical,C3,22.61,,,,,,,,,,,Yes,South,lat_band_3,,,,,
BR-Sa3,FLUXNET,2000,2004,FLX_BR-Sa3_FLUXNET2015_FULLSET_MM_2000-2004_1-4.csv,False,EBF,100.0,-3.01803,-54.97144,Santarem-Km83-Logged Forest,2,1,Am,Tropical,C3,0.0,data_full_half_hourly_raw_v0_1_BR-Sa3.csv,22957962.0,BR,62352.0,EBF,Tropical,2000-06-30 00:00:00,2004-03-13 23:30:00,1299.0,0.96009,Yes,South,lat_band_3,,,,,
CA-Man,FLUXNET,1994,2008,FLX_CA-Man_FLUXNET2015_FULLSET_MM_1994-2008_1-4.csv,False,ENF,259.0,55.87962,-98.48081,Manitoba - Northern Old Black Spruce (former BOREAS Northern Study Area),27,4,Dfc,Cold,C3,0.0,data_full_half_hourly_raw_v0_1_CA-Man.csv,65773410.0,CA,180576.0,ENF,Cold,1994-04-11 00:00:00,2008-11-04 23:30:00,3762.0,0.70688,Yes,North,lat_band_5,,,,,
CA-NS4,FLUXNET,2002,2005,FLX_CA-NS4_FLUXNET2015_FULLSET_MM_2002-2005_1-4.csv,False,ENF,260.0,55.91437,-98.380645,UCI-1964 burn site wet,27,4,Dfc,Cold,C3,0.0,data_full_half_hourly_raw_v0_1_CA-NS4.csv,16207579.0,CA,38640.0,ENF,Cold,2002-10-26 00:00:00,2005-09-26 23:30:00,805.0,0.75445,Yes,North,lat_band_5,,,,,
CA-NS7,FLUXNET,2002,2005,FLX_CA-NS7_FLUXNET2015_FULLSET_MM_2002-2005_1-4.csv,False,OSH,297.0,56.63583,-99.94833,UCI-1998 burn site,27,4,Dfc,Cold,C3,0.0,data_full_half_hourly_raw_v0_1_CA-NS7.csv,23304301.0,CA,55776.0,OSH,Cold,2002-06-24 00:00:00,2005-09-29 23:30:00,1162.0,0.9732,Yes,North,lat_band_5,,,,,
CA-Oas,FLUXNET,1996,2010,FLX_CA-Oas_FLUXNET2015_FULLSET_MM_1996-2010_1-4.csv,False,DBF,530.0,53.62889,-106.19779,"Saskatchewan - Western Boreal, Mature Aspen",27,4,Dfc,Cold,C3,0.57,data_full_half_hourly_raw_v0_1_CA-Oas.csv,96909535.0,CA,256896.0,DBF,Cold,1996-04-23 00:00:00,2010-12-31 23:30:00,5352.0,0.99739,Yes,North,lat_band_4,North-West,45.46641590535117,gpp_var_bin_13,2.9645590832788367,gpp_mean_bin_10
CA-Obs,FLUXNET,1997,2010,FLX_CA-Obs_FLUXNET2015_FULLSET_MM_1997-2010_1-4.csv,False,ENF,628.94,53.98717,-105.11779,"Saskatchewan - Western Boreal, Mature Black Spruce",27,4,Dfc,Cold,C3,0.91,data_full_half_hourly_raw_v0_1_CA-Obs.csv,79761143.0,CA,199968.0,ENF,Cold,1999-04-24 00:00:00,2010-12-31 23:30:00,4166.0,0.97564,Yes,North,lat_band_4,,,,,
CA-SF1,FLUXNET,2003,2006,FLX_CA-SF1_FLUXNET2015_FULLSET_MM_2003-2006_1-4.csv,False,ENF,536.0,54.48503,-105.81757,"Saskatchewan - Western Boreal, forest burned in 1977",27,4,Dfc,Cold,C3,0.07,data_full_half_hourly_raw_v0_1_CA-SF1.csv,11384427.0,CA,26544.0,ENF,Cold,2003-07-17 00:00:00,2006-09-21 23:30:00,553.0,0.47549,Yes,North,lat_band_5,,,,,
CA-SF3,FLUXNET,2001,2006,FLX_CA-SF3_FLUXNET2015_FULLSET_MM_2001-2006_1-4.csv,False,OSH,540.0,54.09156,-106.00526,"Saskatchewan - Western Boreal, forest burned in 1998",27,4,Dfc,Cold,C3,0.0,data_full_half_hourly_raw_v0_1_CA-SF3.csv,18910976.0,CA,44832.0,OSH,Cold,2001-04-12 00:00:00,2006-09-21 23:30:00,934.0,0.46958,Yes,North,lat_band_5,,,,,
CA-TP1,FLUXNET,2002,2014,FLX_CA-TP1_FLUXNET2015_FULLSET_MM_2002-2014_2-4.csv,False,ENF,265.0,42.66093611,-80.55951944,Ontario - Turkey Point 2002 Plantation White Pine,26,4,Dfb,Cold,C3,0.0,data_full_half_hourly_raw_v0_1_CA-TP1.csv,57691169.0,CA,134448.0,ENF,Cold,2003-01-06 00:00:00,2014-12-18 23:30:00,2801.0,0.6417,Yes,North,lat_band_4,North-West,27.45696860250707,gpp_var_bin_9,2.777818151582768,gpp_mean_bin_9
CA-TP2,FLUXNET,2002,2007,FLX_CA-TP2_FLUXNET2015_FULLSET_MM_2002-2007_1-4.csv,False,ENF,212.0,42.77441944,-80.458775,Ontario - Turkey Point 1989 Plantation White Pine,26,4,Dfb,Cold,C3,0.0,data_full_half_hourly_raw_v0_1_CA-TP2.csv,17185447.0,CA,40464.0,ENF,Cold,2002-07-26 00:00:00,2007-10-28 23:30:00,843.0,0.43883,Yes,North,lat_band_4,,,,,
CA-TP3,FLUXNET,2002,2014,FLX_CA-TP3_FLUXNET2015_FULLSET_MM_2002-2014_1-4.csv,False,ENF,184.0,42.70681111,-80.34831389,Ontario - Turkey Point 1974 Plantation White Pine,26,4,Dfb,Cold,C3,0.0,data_full_half_hourly_raw_v0_1_CA-TP3.csv,66512353.0,CA,157152.0,ENF,Cold,2002-08-13 00:00:00,2014-12-18 23:30:00,3274.0,0.72578,Yes,North,lat_band_4,North-West,52.5725697849728,gpp_var_bin_16,4.182648175684468,gpp_mean_bin_18
CA-TPD,FLUXNET,2012,2014,FLX_CA-TPD_FLUXNET2015_FULLSET_MM_2012-2014_1-4.csv,False,DBF,260.0,42.635328,-80.557731,Ontario - Turkey Point Mature Deciduous,26,4,Dfb,Cold,C3,0.0,data_full_half_hourly_raw_v0_1_CA-TPD.csv,21655813.0,CA,50592.0,DBF,Cold,2012-01-01 00:00:00,2014-12-18 23:30:00,1054.0,0.97322,Yes,North,lat_band_4,North-West,63.61869331798673,gpp_var_bin_19,4.103664256641365,gpp_mean_bin_17
CG-Tch,FLUXNET,2006,2009,FLX_CG-Tch_FLUXNET2015_FULLSET_MM_2006-2009_1-4.csv,False,SAV,82.0,-4.28917,11.65642,Tchizalamou,3,1,Aw,Tropical,C3,0.0,data_full_half_hourly_raw_v0_1_CG-Tch.csv,15849185.0,CG,45984.0,SAV,Tropical,2006-07-04 00:00:00,2009-12-31 23:30:00,958.0,0.7502,Yes,South,lat_band_3,,,,,
CH-Oe1,FLUXNET,2002,2008,FLX_CH-Oe1_FLUXNET2015_FULLSET_MM_2002-2008_2-4.csv,False,GRA,450.0,47.28583,7.73194,Oensingen grassland,26,4,Dfb,Cold,C3,0.11,data_full_half_hourly_raw_v0_1_CH-Oe1.csv,46994271.0,CH,114672.0,GRA,Cold,2002-01-30 00:00:00,2008-12-31 23:30:00,2389.0,0.94502,Yes,North,lat_band_4,,,,,
CN-Cha,FLUXNET,2003,2005,FLX_CN-Cha_FLUXNET2015_FULLSET_MM_2003-2005_1-4.csv,False,MF,,42.4025,128.0958,Changbaishan,22,4,Dwb,Cold,C3,12.17,data_full_half_hourly_raw_v0_1_CN-Cha.csv,17125630.0,CN,43680.0,MF,Cold,2003-01-01 00:00:00,2005-12-04 23:30:00,910.0,0.85126,Yes,North,lat_band_4,,,,,
CN-Cng,FLUXNET,2007,2010,FLX_CN-Cng_FLUXNET2015_FULLSET_MM_2007-2010_1-4.csv,False,GRA,,44.5934,123.5092,Changling,21,4,Dwa,Cold,C3,53.07,data_full_half_hourly_raw_v0_1_CN-Cng.csv,25783540.0,CN,57264.0,GRA,Cold,2007-05-22 00:00:00,2010-10-01 23:30:00,1193.0,0.97071,Yes,North,lat_band_4,,,,,
CN-Dan,FLUXNET,2004,2005,FLX_CN-Dan_FLUXNET2015_FULLSET_MM_2004-2005_1-4.csv,False,GRA,,30.4978,91.0664,Dangxiong,7,2,BSk,Arid,C3,0.0,data_full_half_hourly_raw_v0_1_CN-Dan.csv,12822510.0,CN,33600.0,GRA,Arid,2004-01-14 00:00:00,2005-12-31 23:30:00,700.0,0.97493,No,North,lat_band_4,,,,,
CN-Din,FLUXNET,2003,2005,FLX_CN-Din_FLUXNET2015_FULLSET_MM_2003-2005_1-4.csv,False,EBF,,23.1733,112.5361,Dinghushan,11,3,Cwa,Temperate,C3,8.72,data_full_half_hourly_raw_v0_1_CN-Din.csv,16849605.0,CN,46416.0,EBF,Temperate,2003-01-01 00:00:00,2005-12-31 23:30:00,967.0,0.8823,Yes,North,lat_band_4,,,,,
CN-Du2,FLUXNET,2006,2008,FLX_CN-Du2_FLUXNET2015_FULLSET_MM_2006-2008_1-4.csv,False,GRA,,42.0467,116.2836,Duolun_grassland (D01),22,4,Dwb,Cold,C3,8.45,data_full_half_hourly_raw_v0_1_CN-Du2.csv,14832328.0,CN,33936.0,GRA,Cold,2007-01-01 00:00:00,2008-12-31 23:30:00,707.0,0.96717,Yes,North,lat_band_4,,,,,
CN-Du3,FLUXNET,2009,2010,FLX_CN-Du3_FLUXNET2015_FULLSET_MM_2009-2010_1-4.csv,False,GRA,,42.0551,116.2809,Duolun Degraded Meadow,22,4,Dwb,Cold,C3,8.45,data_full_half_hourly_raw_v0_1_CN-Du3.csv,5275684.0,CN,13344.0,GRA,Cold,2009-08-04 00:00:00,2010-05-08 23:30:00,278.0,1.0,No,North,lat_band_4,,,,,
CN-Ha2,FLUXNET,2003,2005,FLX_CN-Ha2_FLUXNET2015_FULLSET_MM_2003-2005_1-4.csv,False,WET,,37.6086,101.3269,Haibei Shrubland,23,4,Dwc,Cold,C3,1.07,data_full_half_hourly_raw_v0_1_CN-Ha2.csv,18870779.0,CN,45792.0,WET,Cold,2003-01-15 00:00:00,2005-12-31 23:30:00,954.0,0.8817,Yes,North,lat_band_4,,,,,
CN-HaM,FLUXNET,2002,2004,FLX_CN-HaM_FLUXNET2015_FULLSET_MM_2002-2004_1-4.csv,False,GRA,,37.37,101.18,Haibei Alpine Tibet site,29,5,ET,Polar,C3,1.07,data_full_half_hourly_raw_v0_1_CN-HaM.csv,21307369.0,CN,50784.0,GRA,Polar,2002-01-15 00:00:00,2004-12-31 23:30:00,1058.0,0.97782,Yes,North,lat_band_4,,,,,
CN-Qia,FLUXNET,2003,2005,FLX_CN-Qia_FLUXNET2015_FULLSET_MM_2003-2005_1-4.csv,False,ENF,,26.7414,115.0581,Qianyanzhou,14,3,Cfa,Temperate,C3,19.55,data_full_half_hourly_raw_v0_1_CN-Qia.csv,20266158.0,CN,52080.0,ENF,Temperate,2003-01-01 00:00:00,2005-12-31 23:30:00,1085.0,0.98996,Yes,North,lat_band_4,,,,,
CN-Sw2,FLUXNET,2010,2012,FLX_CN-Sw2_FLUXNET2015_FULLSET_MM_2010-2012_1-4.csv,False,GRA,,41.7902,111.8971,Siziwang Grazed (SZWG),7,2,BSk,Arid,mix,0.34,data_full_half_hourly_raw_v0_1_CN-Sw2.csv,8160681.0,CN,19200.0,GRA,Arid,2010-12-20 00:00:00,2012-01-23 23:30:00,400.0,1.0,Yes,North,lat_band_4,North-East,6.7448591278989145,gpp_var_bin_3,0.1665890311458334,gpp_mean_bin_1
CZ-BK2,FLUXNET,2004,2012,FLX_CZ-BK2_FLUXNET2015_FULLSET_MM_2004-2012_2-4.csv,False,GRA,855.0,49.49443,18.54285,Bily Kriz grassland,26,4,Dfb,Cold,C3,0.0,data_full_half_hourly_raw_v0_1_CZ-BK2.csv,40463762.0,CZ,100224.0,GRA,Cold,2006-05-04 00:00:00,2012-12-31 23:30:00,2088.0,0.85785,Yes,North,lat_band_4,North-East,35.380040989109006,gpp_var_bin_11,3.386721344538234,gpp_mean_bin_13
DE-Lkb,FLUXNET,2009,2013,FLX_DE-Lkb_FLUXNET2015_FULLSET_MM_2009-2013_1-4.csv,False,ENF,1308.0,49.09962,13.30467,Lackenberg,27,4,Dfc,Cold,C3,0.0,data_full_half_hourly_raw_v0_1_DE-Lkb.csv,25490456.0,DE,60432.0,ENF,Cold,2009-05-01 00:00:00,2013-12-31 23:30:00,1259.0,0.73798,Yes,North,lat_band_4,,,,,
DE-Lnf,FLUXNET,2002,2012,FLX_DE-Lnf_FLUXNET2015_FULLSET_MM_2002-2012_1-4.csv,False,DBF,451.0,51.32822,10.3678,Leinefelde,26,4,Dfb,Cold,C3,0.0,data_full_half_hourly_raw_v0_1_DE-Lnf.csv,55095726.0,DE,132144.0,DBF,Cold,2002-04-11 00:00:00,2012-12-31 23:30:00,2753.0,0.70265,Yes,North,lat_band_4,North-East,71.8574439537768,gpp_var_bin_21,4.549715590711647,gpp_mean_bin_20
DE-Seh,FLUXNET,2007,2010,FLX_DE-Seh_FLUXNET2015_FULLSET_MM_2007-2010_1-4.csv,False,CRO,103.0,50.87062,6.44965,Selhausen,15,3,Cfb,Temperate,C3,0.0,data_full_half_hourly_raw_v0_1_DE-Seh.csv,25670914.0,DE,58608.0,CRO,Temperate,2007-05-26 00:00:00,2010-10-13 23:30:00,1221.0,0.98707,Yes,North,lat_band_4,,,,,
DE-SfN,FLUXNET,2012,2014,FLX_DE-SfN_FLUXNET2015_FULLSET_MM_2012-2014_1-4.csv,False,WET,590.0,47.80639,11.3275,Schechenfilz Nord,26,4,Dfb,Cold,C3,0.0,data_full_half_hourly_raw_v0_1_DE-SfN.csv,17395548.0,DE,39360.0,WET,Cold,2012-07-05 00:00:00,2014-12-31 23:30:00,820.0,0.9011,Yes,North,lat_band_4,North-East,15.846813563944727,gpp_var_bin_5,2.2736017740345527,gpp_mean_bin_6
DE-Spw,FLUXNET,2010,2014,FLX_DE-Spw_FLUXNET2015_FULLSET_MM_2010-2014_1-4.csv,False,WET,61.0,51.89225,14.03369,Spreewald,26,4,Dfb,Cold,C3,0.0,data_full_half_hourly_raw_v0_1_DE-Spw.csv,28307965.0,DE,70608.0,WET,Cold,2010-06-06 00:00:00,2014-12-31 23:30:00,1471.0,0.88084,Yes,North,lat_band_4,North-East,65.4047577395588,gpp_var_bin_20,4.410093492210514,gpp_mean_bin_20
DE-Zrk,FLUXNET,2013,2014,FLX_DE-Zrk_FLUXNET2015_FULLSET_MM_2013-2014_2-4.csv,False,WET,0.0,53.87594,12.88901,Zarnekow,26,4,Dfb,Cold,C3,0.0,data_full_half_hourly_raw_v0_1_DE-Zrk.csv,11567690.0,DE,28608.0,WET,Cold,2013-05-15 00:00:00,2014-12-31 23:30:00,596.0,1.0,No,North,lat_band_4,,,,,
DK-Eng,FLUXNET,2005,2008,FLX_DK-Eng_FLUXNET2015_FULLSET_MM_2005-2008_1-4.csv,False,GRA,10.0,55.69053,12.19175,Enghave,26,4,Dfb,Cold,C3,0.0,data_full_half_hourly_raw_v0_1_DK-Eng.csv,23374977.0,DK,52608.0,GRA,Cold,2005-05-13 00:00:00,2008-06-30 23:30:00,1096.0,0.95721,Yes,North,lat_band_5,,,,,
DK-Fou,FLUXNET,2005,2005,FLX_DK-Fou_FLUXNET2015_FULLSET_MM_2005-2005_1-4.csv,False,CRO,51.0,56.4842,9.58722,Foulum,26,4,Dfb,Cold,C3,0.0,data_full_half_hourly_raw_v0_1_DK-Fou.csv,4758374.0,DK,11568.0,CRO,Cold,2005-01-30 00:00:00,2005-10-12 23:30:00,241.0,0.94141,No,North,lat_band_5,,,,,
ES-Amo,FLUXNET,2007,2012,FLX_ES-Amo_FLUXNET2015_FULLSET_MM_2007-2012_1-4.csv,False,OSH,58.0,36.83361,-2.25232,Amoladeras,5,2,BWk,Arid,C3,0.0,data_full_half_hourly_raw_v0_1_ES-Amo.csv,35999834.0,ES,78576.0,OSH,Arid,2007-07-03 00:00:00,2012-12-31 23:30:00,1637.0,0.81483,Yes,North,lat_band_4,North-West,2.3373145008578664,gpp_var_bin_1,-0.11484447368153125,gpp_mean_bin_1
ES-LgS,FLUXNET,2007,2009,FLX_ES-LgS_FLUXNET2015_FULLSET_MM_2007-2009_1-4.csv,False,OSH,2267.0,37.09794,-2.96583,Laguna Seca,18,4,Dsb,Cold,C3,1.28,data_full_half_hourly_raw_v0_1_ES-LgS.csv,19346555.0,ES,43728.0,OSH,Cold,2007-01-01 00:00:00,2009-12-31 23:30:00,911.0,0.8312,Yes,North,lat_band_4,,,,,
ES-Ln2,FLUXNET,2009,2009,FLX_ES-Ln2_FLUXNET2015_FULLSET_MM_2009-2009_1-4.csv,False,OSH,2249.0,36.9695,-3.47582,Lanjaron-Salvage logging,18,4,Dsb,Cold,C3,0.0,data_full_half_hourly_raw_v0_1_ES-Ln2.csv,3512709.0,ES,9168.0,OSH,Cold,2009-05-30 00:00:00,2009-12-31 23:30:00,191.0,0.88426,No,North,lat_band_4,,,,,
FI-Jok,FLUXNET,2000,2003,FLX_FI-Jok_FLUXNET2015_FULLSET_MM_2000-2003_1-4.csv,False,CRO,109.0,60.8986,23.51345,Jokioinen,27,4,Dfc,Cold,C3,0.0,data_full_half_hourly_raw_v0_1_FI-Jok.csv,22785889.0,FI,54336.0,CRO,Cold,2000-01-28 00:00:00,2003-09-05 23:30:00,1132.0,0.85953,Yes,North,lat_band_5,,,,,
FI-Lom,FLUXNET,2007,2009,FLX_FI-Lom_FLUXNET2015_FULLSET_MM_2007-2009_1-4.csv,False,WET,274.0,67.99724,24.20918,Lompolojankka,27,4,Dfc,Cold,C3,0.0,data_full_half_hourly_raw_v0_1_FI-Lom.csv,21692771.0,FI,52128.0,WET,Cold,2007-01-01 00:00:00,2009-12-31 23:30:00,1086.0,0.99088,Yes,North,lat_band_5,,,,,
FI-Sod,FLUXNET,2001,2014,FLX_FI-Sod_FLUXNET2015_FULLSET_MM_2001-2014_1-4.csv,False,ENF,180.0,67.36239,26.63859,Sodankyla,27,4,Dfc,Cold,C3,0.0,data_full_half_hourly_raw_v0_1_FI-Sod.csv,95188202.0,FI,232032.0,ENF,Cold,2001-01-01 00:00:00,2014-12-31 23:30:00,4834.0,0.94543,Yes,North,lat_band_5,North-East,10.256076882932263,gpp_var_bin_4,1.605228097839953,gpp_mean_bin_4
FR-LBr,FLUXNET,1996,2008,FLX_FR-LBr_FLUXNET2015_FULLSET_MM_1996-2008_1-4.csv,False,ENF,61.0,44.71711,-0.7693,Le Bray,15,3,Cfb,Temperate,C3,0.0,data_full_half_hourly_raw_v0_1_FR-LBr.csv,76748750.0,FR,182064.0,ENF,Temperate,1996-07-12 00:00:00,2008-12-31 23:30:00,3793.0,0.83253,Yes,North,lat_band_4,,,,,
FR-Pue,FLUXNET,2000,2014,FLX_FR-Pue_FLUXNET2015_FULLSET_MM_2000-2014_2-4.csv,False,EBF,270.0,43.7413,3.5957,Puechabon,8,3,Csa,Temperate,C3,6.59,data_full_half_hourly_raw_v0_1_FR-Pue.csv,109116169.0,FR,245760.0,EBF,Temperate,2000-07-26 00:00:00,2014-12-31 23:30:00,5120.0,0.97117,Yes,North,lat_band_4,North-East,21.912980683896144,gpp_var_bin_7,3.2114556822306306,gpp_mean_bin_12
GH-Ank,FLUXNET,2011,2014,FLX_GH-Ank_FLUXNET2015_FULLSET_MM_2011-2014_1-4.csv,False,EBF,124.0,5.26854,-2.69421,Ankasa,2,1,Am,Tropical,C3,53.64,data_full_half_hourly_raw_v0_1_GH-Ank.csv,12612868.0,GH,34896.0,EBF,Tropical,2011-02-10 00:00:00,2014-12-04 23:30:00,727.0,0.52152,Yes,North,lat_band_3,,,,,
GL-NuF,FLUXNET,2008,2014,FLX_GL-NuF_FLUXNET2015_FULLSET_MM_2008-2014_1-4.csv,False,WET,50.0,64.13083,-51.38611,Nuuk Fen,29,5,ET,Polar,C3,0.0,data_full_half_hourly_raw_v0_1_GL-NuF.csv,19755601.0,GL,47040.0,WET,Polar,2008-06-19 00:00:00,2014-08-03 23:30:00,980.0,0.43809,Yes,North,lat_band_5,,,,,
GL-ZaF,FLUXNET,2008,2011,FLX_GL-ZaF_FLUXNET2015_FULLSET_MM_2008-2011_2-4.csv,False,WET,38.0,74.48143,-20.55452,Zackenberg Fen,29,5,ET,Polar,C3,0.0,data_full_half_hourly_raw_v0_1_GL-ZaF.csv,8659173.0,GL,20400.0,WET,Polar,2008-04-13 00:00:00,2011-10-29 23:30:00,425.0,0.32819,Yes,North,lat_band_5,,,,,
GL-ZaH,FLUXNET,2000,2014,FLX_GL-ZaH_FLUXNET2015_FULLSET_MM_2000-2014_2-4.csv,False,GRA,38.0,74.47328,-20.5503,Zackenberg Heath,29,5,ET,Polar,C3,0.0,data_full_half_hourly_raw_v0_1_GL-ZaH.csv,39059125.0,GL,93696.0,GRA,Polar,2000-06-07 00:00:00,2014-10-21 23:30:00,1952.0,0.37181,Yes,North,lat_band_5,,,,,
IT-CA1,FLUXNET,2011,2014,FLX_IT-CA1_FLUXNET2015_FULLSET_MM_2011-2014_2-4.csv,False,DBF,200.0,42.38041,12.02656,Castel d'Asso1,8,3,Csa,Temperate,C3,0.16,data_full_half_hourly_raw_v0_1_IT-CA1.csv,24966376.0,IT,56016.0,DBF,Temperate,2011-06-08 00:00:00,2014-12-17 23:30:00,1167.0,0.90535,Yes,North,lat_band_4,North-East,34.89610080643334,gpp_var_bin_10,3.6270034633319055,gpp_mean_bin_14
IT-CA2,FLUXNET,2011,2014,FLX_IT-CA2_FLUXNET2015_FULLSET_MM_2011-2014_2-4.csv,False,CRO,200.0,42.37722,12.02604,Castel d'Asso2,8,3,Csa,Temperate,C3,0.16,data_full_half_hourly_raw_v0_1_IT-CA2.csv,24775848.0,IT,55536.0,CRO,Temperate,2011-07-13 00:00:00,2014-12-17 23:30:00,1157.0,0.92265,Yes,North,lat_band_4,North-East,32.007208677773626,gpp_var_bin_10,2.6983978837150677,gpp_mean_bin_8
IT-CA3,FLUXNET,2011,2014,FLX_IT-CA3_FLUXNET2015_FULLSET_MM_2011-2014_2-4.csv,False,DBF,197.0,42.38,12.0222,Castel d'Asso3,8,3,Csa,Temperate,C3,0.16,data_full_half_hourly_raw_v0_1_IT-CA3.csv,21222752.0,IT,46512.0,DBF,Temperate,2011-11-14 00:00:00,2014-11-30 23:30:00,969.0,0.87062,Yes,North,lat_band_4,North-East,49.700430516097335,gpp_var_bin_15,4.005099555383557,gpp_mean_bin_17
IT-Col,FLUXNET,1996,2014,FLX_IT-Col_FLUXNET2015_FULLSET_MM_1996-2014_1-4.csv,False,DBF,1560.0,41.84936,13.58814,Collelongo,26,4,Dfb,Cold,C3,0.81,data_full_half_hourly_raw_v0_1_IT-Col.csv,87685457.0,IT,212976.0,DBF,Cold,1996-06-24 00:00:00,2014-12-31 23:30:00,4437.0,0.65588,Yes,North,lat_band_4,,,,,
IT-Cpz,FLUXNET,1997,2009,FLX_IT-Cpz_FLUXNET2015_FULLSET_MM_1997-2009_1-4.csv,False,EBF,68.0,41.70525,12.37611,Castelporziano,8,3,Csa,Temperate,C3,0.0,data_full_half_hourly_raw_v0_1_IT-Cpz.csv,58112038.0,IT,132720.0,EBF,Temperate,2000-03-21 00:00:00,2008-12-09 23:30:00,2765.0,0.86786,Yes,North,lat_band_4,,,,,
IT-Isp,FLUXNET,2013,2014,FLX_IT-Isp_FLUXNET2015_FULLSET_MM_2013-2014_1-4.csv,False,DBF,210.0,45.81264,8.63358,Ispra ABC-IS,14,3,Cfa,Temperate,C3,4.47,data_full_half_hourly_raw_v0_1_IT-Isp.csv,13549264.0,IT,32544.0,DBF,Temperate,2013-01-01 00:00:00,2014-12-31 23:30:00,678.0,0.92877,No,North,lat_band_4,,,,,
IT-La2,FLUXNET,2000,2002,FLX_IT-La2_FLUXNET2015_FULLSET_MM_2000-2002_1-4.csv,False,ENF,1350.0,45.9542,11.2853,Lavarone2,26,4,Dfb,Cold,C3,3.57,data_full_half_hourly_raw_v0_1_IT-La2.csv,10337781.0,IT,26736.0,ENF,Cold,2000-07-23 00:00:00,2002-04-02 23:30:00,557.0,0.89984,Yes,North,lat_band_4,,,,,
IT-Noe,FLUXNET,2004,2014,FLX_IT-Noe_FLUXNET2015_FULLSET_MM_2004-2014_2-4.csv,False,CSH,25.0,40.60618,8.15169,Arca di Noe - Le Prigionette,8,3,Csa,Temperate,C3,0.0,data_full_half_hourly_raw_v0_1_IT-Noe.csv,74086811.0,IT,163584.0,CSH,Temperate,2004-04-07 00:00:00,2014-10-11 23:30:00,3408.0,0.8875,Yes,North,lat_band_4,North-East,19.62000606682388,gpp_var_bin_6,2.8950671028706965,gpp_mean_bin_9
IT-PT1,FLUXNET,2002,2004,FLX_IT-PT1_FLUXNET2015_FULLSET_MM_2002-2004_1-4.csv,False,DBF,60.0,45.20087,9.06104,Parco Ticino forest,14,3,Cfa,Temperate,C3,4.47,data_full_half_hourly_raw_v0_1_IT-PT1.csv,20612556.0,IT,45264.0,DBF,Temperate,2002-03-23 00:00:00,2004-10-20 23:30:00,943.0,1.0,Yes,North,lat_band_4,,,,,
IT-Ro1,FLUXNET,2000,2008,FLX_IT-Ro1_FLUXNET2015_FULLSET_MM_2000-2008_1-4.csv,False,DBF,235.0,42.40812,11.93001,Roccarespampani 1,8,3,Csa,Temperate,C3,0.0,data_full_half_hourly_raw_v0_1_IT-Ro1.csv,55880062.0,IT,134832.0,DBF,Temperate,2000-05-14 00:00:00,2008-12-31 23:30:00,2809.0,0.89062,Yes,North,lat_band_4,,,,,
IT-Ro2,FLUXNET,2002,2012,FLX_IT-Ro2_FLUXNET2015_FULLSET_MM_2002-2012_1-4.csv,False,DBF,160.0,42.39026,11.92093,Roccarespampani 2,8,3,Csa,Temperate,C3,0.0,data_full_half_hourly_raw_v0_1_IT-Ro2.csv,71813758.0,IT,159792.0,DBF,Temperate,2002-01-01 00:00:00,2012-12-31 23:30:00,3329.0,0.82852,Yes,North,lat_band_4,North-East,56.84615701540286,gpp_var_bin_18,4.0008416928945145,gpp_mean_bin_17
IT-SRo,FLUXNET,1999,2012,FLX_IT-SRo_FLUXNET2015_FULLSET_MM_1999-2012_1-4.csv,False,ENF,6.0,43.72786,10.28444,San Rossore,8,3,Csa,Temperate,C3,0.0,data_full_half_hourly_raw_v0_1_IT-SRo.csv,94044761.0,IT,218544.0,ENF,Temperate,1999-01-01 00:00:00,2012-12-31 23:30:00,4553.0,0.8903,Yes,North,lat_band_4,North-East,60.98956788797048,gpp_var_bin_19,5.477459563776631,gpp_mean_bin_23
JP-MBF,FLUXNET,2003,2005,FLX_JP-MBF_FLUXNET2015_FULLSET_MM_2003-2005_1-4.csv,False,DBF,,44.3869,142.3186,Moshiri Birch Forest Site,26,4,Dfb,Cold,C3,0.12,data_full_half_hourly_raw_v0_1_JP-MBF.csv,11277637.0,JP,27984.0,DBF,Cold,2004-04-16 00:00:00,2005-12-31 23:30:00,583.0,0.9328,Yes,North,lat_band_4,,,,,
JP-SMF,FLUXNET,2002,2006,FLX_JP-SMF_FLUXNET2015_FULLSET_MM_2002-2006_1-4.csv,False,MF,,35.2617,137.0788,Seto Mixed Forest Site,14,3,Cfa,Temperate,C3,0.08,data_full_half_hourly_raw_v0_1_JP-SMF.csv,28180876.0,JP,67200.0,MF,Temperate,2002-10-11 00:00:00,2006-12-31 23:30:00,1400.0,0.90732,Yes,North,lat_band_4,,,,,
MY-PSO,FLUXNET,2003,2009,FLX_MY-PSO_FLUXNET2015_FULLSET_MM_2003-2009_1-4.csv,False,EBF,,2.973,102.3062,Pasoh Forest Reserve (PSO),1,1,Af,Tropical,C3,0.22,data_full_half_hourly_raw_v0_1_MY-PSO.csv,42635055.0,MY,107472.0,EBF,Tropical,2003-01-01 00:00:00,2009-12-31 23:30:00,2239.0,0.87564,Yes,North,lat_band_3,,,,,
NL-Hor,FLUXNET,2004,2011,FLX_NL-Hor_FLUXNET2015_FULLSET_MM_2004-2011_1-4.csv,False,GRA,2.2,52.24035,5.0713,Horstermeer,15,3,Cfb,Temperate,C3,0.0,data_full_half_hourly_raw_v0_1_NL-Hor.csv,50415361.0,NL,114240.0,GRA,Temperate,2004-01-22 00:00:00,2011-09-06 23:30:00,2380.0,0.85458,Yes,North,lat_band_4,North-East,40.84472001479159,gpp_var_bin_12,4.132620339241948,gpp_mean_bin_18
PA-SPn,FLUXNET,2007,2009,FLX_PA-SPn_FLUXNET2015_FULLSET_MM_2007-2009_1-4.csv,False,DBF,78.0,9.31814,-79.6346,Sardinilla Plantation,2,1,Am,Tropical,C3,0.0,data_full_half_hourly_raw_v0_1_PA-SPn.csv,14791308.0,PA,39264.0,DBF,Tropical,2007-03-06 00:00:00,2009-06-30 23:30:00,818.0,0.96462,Yes,North,lat_band_3,,,,,
PA-SPs,FLUXNET,2007,2009,FLX_PA-SPs_FLUXNET2015_FULLSET_MM_2007-2009_1-4.csv,False,GRA,68.0,9.31378,-79.63143,Sardinilla-Pasture,2,1,Am,Tropical,C4,0.0,data_full_half_hourly_raw_v0_1_PA-SPs.csv,17543043.0,PA,46608.0,GRA,Tropical,2007-03-22 00:00:00,2009-12-31 23:30:00,971.0,0.95571,Yes,North,lat_band_3,,,,,
RU-Che,FLUXNET,2002,2005,FLX_RU-Che_FLUXNET2015_FULLSET_MM_2002-2005_1-4.csv,False,WET,6.0,68.61304,161.34143,Cherski,19,4,Dsc,Cold,C3,0.0,data_full_half_hourly_raw_v0_1_RU-Che.csv,11821876.0,RU,28656.0,WET,Cold,2002-07-04 00:00:00,2005-10-19 23:30:00,597.0,0.49585,Yes,North,lat_band_5,,,,,
RU-Cok,FLUXNET,2003,2014,FLX_RU-Cok_FLUXNET2015_FULLSET_MM_2003-2014_2-4.csv,False,OSH,48.0,70.82914,147.49428,Chokurdakh,29,5,ET,Polar,C3,0.0,data_full_half_hourly_raw_v0_1_RU-Cok.csv,23194512.0,RU,50880.0,OSH,Polar,2003-04-28 00:00:00,2013-09-08 23:30:00,1060.0,0.2799,Yes,North,lat_band_5,,,,,
RU-Ha1,FLUXNET,2002,2004,FLX_RU-Ha1_FLUXNET2015_FULLSET_MM_2002-2004_1-4.csv,False,GRA,446.0,54.72517,90.00215,Hakasia steppe,23,4,Dwc,Cold,C3,1.15,data_full_half_hourly_raw_v0_1_RU-Ha1.csv,12717047.0,RU,28848.0,GRA,Cold,2002-06-29 00:00:00,2004-12-12 23:30:00,601.0,0.66927,Yes,North,lat_band_5,,,,,
SD-Dem,FLUXNET,2005,2009,FLX_SD-Dem_FLUXNET2015_FULLSET_MM_2005-2009_2-4.csv,False,SAV,500.0,13.2829,30.4783,Demokeya,4,2,BWh,Arid,C3,0.0,data_full_half_hourly_raw_v0_1_SD-Dem.csv,17224643.0,SD,38832.0,SAV,Arid,2005-01-30 00:00:00,2009-12-01 23:30:00,809.0,0.45784,Yes,North,lat_band_3,,,,,
SJ-Adv,FLUXNET,2011,2014,FLX_SJ-Adv_FLUXNET2015_FULLSET_MM_2011-2014_1-4.csv,False,WET,17.0,78.186,15.923,Adventdalen,29,5,ET,Polar,C3,0.0,data_full_half_hourly_raw_v0_1_SJ-Adv.csv,7707039.0,SJ,18720.0,WET,Polar,2012-07-17 00:00:00,2014-12-31 23:30:00,390.0,0.4343,Yes,North,lat_band_5,,,,,
SJ-Blv,FLUXNET,2008,2009,FLX_SJ-Blv_FLUXNET2015_FULLSET_MM_2008-2009_1-4.csv,False,SNO,25.0,78.92163,11.83109,"Bayelva, Spitsbergen",29,5,ET,Polar,C3,0.0,,,,,,,,,,,No,North,lat_band_5,,,,,
SN-Dhr,FLUXNET,2010,2013,FLX_SN-Dhr_FLUXNET2015_FULLSET_MM_2010-2013_1-4.csv,False,SAV,40.0,15.40278,-15.43222,Dahra,6,2,BSh,Arid,C3,0.0,data_full_half_hourly_raw_v0_1_SN-Dhr.csv,14642569.0,SN,33120.0,SAV,Arid,2010-08-03 00:00:00,2013-12-31 23:30:00,690.0,0.55333,Yes,North,lat_band_3,,,,,
US-Atq,FLUXNET,2003,2008,FLX_US-Atq_FLUXNET2015_FULLSET_MM_2003-2008_1-4.csv,False,WET,15.0,70.4696,-157.4089,Atqasuk,29,5,ET,Polar,C3,0.0,data_full_half_hourly_raw_v0_1_US-Atq.csv,34451188.0,US,82512.0,WET,Polar,2003-04-05 00:00:00,2008-10-01 23:30:00,1719.0,0.8565,Yes,North,lat_band_5,,,,,
US-Blo,FLUXNET,1997,2007,FLX_US-Blo_FLUXNET2015_FULLSET_MM_1997-2007_1-4.csv,False,ENF,1315.0,38.8953,-120.6328,Blodgett Forest,9,3,Csb,Temperate,C3,0.0,data_full_half_hourly_raw_v0_1_US-Blo.csv,51452175.0,US,122160.0,ENF,Temperate,1997-06-03 00:00:00,2007-10-09 23:30:00,2545.0,0.6731,Yes,North,lat_band_4,,,,,
US-Cop,FLUXNET,2001,2007,FLX_US-Cop_FLUXNET2015_FULLSET_MM_2001-2007_1-4.csv,False,GRA,1520.0,38.09,-109.39,Corral Pocket,7,2,BSk,Arid,mix,0.0,,,,,,,,,,,Yes,North,lat_band_4,,,,,
US-GBT,FLUXNET,1999,2006,FLX_US-GBT_FLUXNET2015_FULLSET_MM_1999-2006_1-4.csv,False,ENF,3191.0,41.36579,-106.2397,GLEES Brooklyn Tower,27,4,Dfc,Cold,C3,0.16,data_full_half_hourly_raw_v0_1_US-GBT.csv,13261292.0,US,31344.0,ENF,Cold,2001-11-11 00:00:00,2003-10-23 23:30:00,653.0,0.91713,Yes,North,lat_band_4,,,,,
US-GLE,FLUXNET,2004,2014,FLX_US-GLE_FLUXNET2015_FULLSET_MM_2004-2014_1-4.csv,False,ENF,3197.0,41.36653,-106.2399,GLEES,27,4,Dfc,Cold,C3,0.16,data_full_half_hourly_raw_v0_1_US-GLE.csv,66578575.0,US,156672.0,ENF,Cold,2005-04-25 00:00:00,2014-12-31 23:30:00,3264.0,0.92256,Yes,North,lat_band_4,North-West,16.03881441043138,gpp_var_bin_5,1.627013840909671,gpp_mean_bin_4
US-Goo,FLUXNET,2002,2006,FLX_US-Goo_FLUXNET2015_FULLSET_MM_2002-2006_1-4.csv,False,GRA,87.0,34.2547,-89.8735,Goodwin Creek,14,3,Cfa,Temperate,unknown,1.59,data_full_half_hourly_raw_v0_1_US-Goo.csv,29443874.0,US,68064.0,GRA,Temperate,2002-05-07 00:00:00,2006-12-31 23:30:00,1418.0,0.83412,Yes,North,lat_band_4,,,,,
US-Ha1,FLUXNET,1991,2012,FLX_US-Ha1_FLUXNET2015_FULLSET_MM_1991-2012_1-4.csv,False,DBF,340.0,42.5378,-72.1715,Harvard Forest EMS Tower (HFR1),26,4,Dfb,Cold,C3,0.0,,,,,,,,,,,Yes,North,lat_band_4,,,,,
US-IB2,FLUXNET,2004,2011,FLX_US-IB2_FLUXNET2015_FULLSET_MM_2004-2011_1-4.csv,False,GRA,226.5,41.84062,-88.24103,Fermi National Accelerator Laboratory- Batavia (Prairie site),25,4,Dfa,Cold,C4,38.28,data_full_half_hourly_raw_v0_1_US-IB2.csv,53795158.0,US,124560.0,GRA,Cold,2004-10-07 00:00:00,2011-12-31 23:30:00,2595.0,0.98221,Yes,North,lat_band_4,North-West,48.729608897147266,gpp_var_bin_15,3.314695256069364,gpp_mean_bin_13
US-Ivo,FLUXNET,2004,2007,FLX_US-Ivo_FLUXNET2015_FULLSET_MM_2004-2007_1-4.csv,False,WET,568.0,68.4865,-155.7503,Ivotuk,19,4,Dsc,Cold,C3,0.0,data_full_half_hourly_raw_v0_1_US-Ivo.csv,23981127.0,US,55536.0,WET,Cold,2004-01-01 00:00:00,2007-10-04 23:30:00,1157.0,0.84268,Yes,North,lat_band_5,,,,,
US-KS1,FLUXNET,2002,2002,FLX_US-KS1_FLUXNET2015_FULLSET_MM_2002-2002_1-4.csv,False,ENF,1.0,28.4583,-80.6709,Kennedy Space Center (slash pine),14,3,Cfa,Temperate,C3,0.0,data_full_half_hourly_raw_v0_1_US-KS1.csv,5279188.0,US,13248.0,ENF,Temperate,2002-03-07 00:00:00,2002-12-31 23:30:00,276.0,0.92,No,North,lat_band_4,,,,,
US-KS2,FLUXNET,2003,2006,FLX_US-KS2_FLUXNET2015_FULLSET_MM_2003-2006_1-4.csv,False,CSH,3.0,28.6086,-80.6715,Kennedy Space Center (scrub oak),14,3,Cfa,Temperate,C3,0.0,data_full_half_hourly_raw_v0_1_US-KS2.csv,28802489.0,US,64224.0,CSH,Temperate,2003-03-29 00:00:00,2006-12-31 23:30:00,1338.0,0.9738,Yes,North,lat_band_4,,,,,
US-LWW,FLUXNET,1997,1998,FLX_US-LWW_FLUXNET2015_FULLSET_MM_1997-1998_1-4.csv,False,GRA,365.0,34.9604,-97.9789,Little Washita Watershed,14,3,Cfa,Temperate,C4,31.01,data_full_half_hourly_raw_v0_1_US-LWW.csv,9973950.0,US,32736.0,GRA,Temperate,1997-01-12 00:00:00,1998-12-31 23:30:00,682.0,0.94854,No,North,lat_band_4,,,,,
US-Lin,FLUXNET,2009,2010,FLX_US-Lin_FLUXNET2015_FULLSET_MM_2009-2010_1-4.csv,False,CRO,131.0,36.3566,-119.8423,Lindcove Orange Orchard,7,2,BSk,Arid,C3,1.56,data_full_half_hourly_raw_v0_1_US-Lin.csv,7180906.0,US,17856.0,CRO,Arid,2009-11-09 00:00:00,2010-11-15 23:30:00,372.0,1.0,No,North,lat_band_4,,,,,
US-Los,FLUXNET,2000,2014,FLX_US-Los_FLUXNET2015_FULLSET_MM_2000-2014_2-4.csv,False,WET,480.0,46.0827,-89.9792,Lost Creek,26,4,Dfb,Cold,C3,0.0,data_full_half_hourly_raw_v0_1_US-Los.csv,59962082.0,US,141168.0,WET,Cold,2000-09-11 00:00:00,2014-12-31 23:30:00,2941.0,0.56287,Yes,North,lat_band_4,,,,,
US-Me1,FLUXNET,2004,2005,FLX_US-Me1_FLUXNET2015_FULLSET_MM_2004-2005_1-4.csv,False,ENF,896.0,44.5794,-121.5,Metolius - Eyerly burn,18,4,Dsb,Cold,C3,0.03,data_full_half_hourly_raw_v0_1_US-Me1.csv,5937532.0,US,14688.0,ENF,Cold,2004-06-16 00:00:00,2005-05-15 23:30:00,306.0,0.91617,No,North,lat_band_4,,,,,
US-Me3,FLUXNET,2004,2009,FLX_US-Me3_FLUXNET2015_FULLSET_MM_2004-2009_1-4.csv,False,ENF,1005.0,44.3154,-121.6078,Metolius-second young aged pine,18,4,Dsb,Cold,C3,0.03,data_full_half_hourly_raw_v0_1_US-Me3.csv,37505610.0,US,91200.0,ENF,Cold,2004-01-01 00:00:00,2009-09-30 23:30:00,1900.0,0.90476,Yes,North,lat_band_4,,,,,
US-Me4,FLUXNET,1996,2000,FLX_US-Me4_FLUXNET2015_FULLSET_MM_1996-2000_1-4.csv,False,ENF,922.0,44.4992,-121.6224,Metolius-old aged ponderosa pine,18,4,Dsb,Cold,C3,0.03,data_full_half_hourly_raw_v0_1_US-Me4.csv,13324125.0,US,41184.0,ENF,Cold,1996-05-22 00:00:00,2000-11-03 23:30:00,858.0,0.52735,No,North,lat_band_4,,,,,
US-Me5,FLUXNET,2000,2002,FLX_US-Me5_FLUXNET2015_FULLSET_MM_2000-2002_1-4.csv,False,ENF,1188.0,44.43719,-121.56676,Metolius-first young aged pine,18,4,Dsb,Cold,C3,0.03,data_full_half_hourly_raw_v0_1_US-Me5.csv,17858240.0,US,44976.0,ENF,Cold,2000-04-04 00:00:00,2002-12-31 23:30:00,937.0,0.93513,Yes,North,lat_band_4,,,,,
US-Me6,FLUXNET,2010,2014,FLX_US-Me6_FLUXNET2015_FULLSET_MM_2010-2014_2-4.csv,False,ENF,998.0,44.3232842,-121.6078,Metolius Young Pine Burn,18,4,Dsb,Cold,C3,0.03,data_full_half_hourly_raw_v0_1_US-Me6.csv,27986548.0,US,66672.0,ENF,Cold,2010-06-05 00:00:00,2014-12-31 23:30:00,1389.0,0.83124,Yes,North,lat_band_4,North-West,16.095444747786924,gpp_var_bin_5,2.509707038111951,gpp_mean_bin_7
US-Myb,FLUXNET,2010,2014,FLX_US-Myb_FLUXNET2015_FULLSET_MM_2010-2014_2-4.csv,False,WET,-4.0,38.049782,-121.76506,Mayberry Wetland,8,3,Csa,Temperate,C3,1.03,data_full_half_hourly_raw_v0_1_US-Myb.csv,27630526.0,US,64320.0,WET,Temperate,2011-02-08 00:00:00,2014-12-31 23:30:00,1340.0,0.94167,Yes,North,lat_band_4,North-West,56.780617837502824,gpp_var_bin_17,4.220688004866293,gpp_mean_bin_19
US-NR1,FLUXNET,1998,2014,FLX_US-NR1_FLUXNET2015_FULLSET_MM_1998-2014_1-4.csv,False,ENF,3050.0,40.0329,-105.5464,Niwot Ridge Forest (LTER NWT1),27,4,Dfc,Cold,C3,0.35,data_full_half_hourly_raw_v0_1_US-NR1.csv,112936778.0,US,270768.0,ENF,Cold,1999-05-02 00:00:00,2014-12-31 23:30:00,5641.0,0.98567,Yes,North,lat_band_4,North-West,18.764990411519506,gpp_var_bin_6,2.2556610238580634,gpp_mean_bin_6
US-Ne1,FLUXNET,2001,2013,FLX_US-Ne1_FLUXNET2015_FULLSET_MM_2001-2013_1-4.csv,False,CRO,361.0,41.16506,-96.47664,Mead - irrigated continuous maize site,25,4,Dfa,Cold,C4,48.91,,,,,,,,,,,Yes,North,lat_band_4,,,,,
US-Ne2,FLUXNET,2001,2013,FLX_US-Ne2_FLUXNET2015_FULLSET_MM_2001-2013_1-4.csv,False,CRO,362.0,41.16487,-96.4701,Mead - irrigated maize-soybean rotation site,25,4,Dfa,Cold,rotation,48.91,,,,,,,,,,,Yes,North,lat_band_4,,,,,
US-Ne3,FLUXNET,2001,2013,FLX_US-Ne3_FLUXNET2015_FULLSET_MM_2001-2013_1-4.csv,False,CRO,363.0,41.17967,-96.43965,Mead - rainfed maize-soybean rotation site,25,4,Dfa,Cold,rotation,48.91,,,,,,,,,,,Yes,North,lat_band_4,,,,,
US-ORv,FLUXNET,2011,2011,FLX_US-ORv_FLUXNET2015_FULLSET_MM_2011-2011_1-4.csv,False,WET,221.0,40.0201,-83.0183,Olentangy River Wetland Research Park,25,4,Dfa,Cold,C3,33.28,data_full_half_hourly_raw_v0_1_US-ORv.csv,5933944.0,US,15792.0,WET,Cold,2011-01-01 00:00:00,2011-12-31 23:30:00,329.0,0.90137,No,North,lat_band_4,,,,,
US-PFa,FLUXNET,1995,2014,FLX_US-PFa_FLUXNET2015_FULLSET_MM_1995-2014_1-4.csv,False,MF,470.0,45.9459,-90.2723,Park Falls/WLEF,26,4,Dfb,Cold,C3,2.6,,,,,,,,,,,Yes,North,lat_band_4,,,,,
US-SRC,FLUXNET,2008,2014,FLX_US-SRC_FLUXNET2015_FULLSET_MM_2008-2014_1-4.csv,False,MF,950.0,31.9083,-110.8395,Santa Rita Creosote,6,2,BSh,Arid,C3,55.39,data_full_half_hourly_raw_v0_1_US-SRC.csv,39323562.0,US,89760.0,MF,Arid,2008-03-15 00:00:00,2014-06-22 23:30:00,1870.0,0.81624,Yes,North,lat_band_4,,,,,
US-SRM,FLUXNET,2004,2014,FLX_US-SRM_FLUXNET2015_FULLSET_MM_2004-2014_1-4.csv,False,WSA,1120.0,31.8214,-110.8661,Santa Rita Mesquite,6,2,BSh,Arid,C3,55.39,data_full_half_hourly_raw_v0_1_US-SRM.csv,85092857.0,US,190752.0,WSA,Arid,2004-01-01 00:00:00,2014-12-31 23:30:00,3974.0,0.98905,Yes,North,lat_band_4,North-West,4.179941663074143,gpp_var_bin_2,0.7519256417547392,gpp_mean_bin_2
US-Sta,FLUXNET,2005,2009,FLX_US-Sta_FLUXNET2015_FULLSET_MM_2005-2009_1-4.csv,False,OSH,2069.0,41.3966,-106.8024,Saratoga,7,2,BSk,Arid,C3,0.16,data_full_half_hourly_raw_v0_1_US-Sta.csv,19848993.0,US,46656.0,OSH,Arid,2005-11-03 00:00:00,2009-12-07 23:30:00,972.0,0.64973,Yes,North,lat_band_4,,,,,
US-Syv,FLUXNET,2001,2014,FLX_US-Syv_FLUXNET2015_FULLSET_MM_2001-2014_1-4.csv,False,MF,540.0,46.242,-89.3477,Sylvania Wilderness Area,26,4,Dfb,Cold,C3,0.0,data_full_half_hourly_raw_v0_1_US-Syv.csv,49956257.0,US,119664.0,MF,Cold,2001-08-30 00:00:00,2014-12-31 23:30:00,2493.0,0.5117,Yes,North,lat_band_4,North-West,47.82090905160179,gpp_var_bin_14,3.577390373136449,gpp_mean_bin_14
US-Ton,FLUXNET,2001,2014,FLX_US-Ton_FLUXNET2015_FULLSET_MM_2001-2014_1-4.csv,False,WSA,177.0,38.4316,-120.96598,Tonzi Ranch,8,3,Csa,Temperate,C3,0.0,data_full_half_hourly_raw_v0_1_US-Ton.csv,103999932.0,US,230928.0,WSA,Temperate,2001-05-24 00:00:00,2014-12-31 23:30:00,4811.0,0.96801,Yes,North,lat_band_4,North-West,21.678871533781592,gpp_var_bin_7,2.3419606865776346,gpp_mean_bin_6
US-Tw3,FLUXNET,2013,2014,FLX_US-Tw3_FLUXNET2015_FULLSET_MM_2013-2014_2-4.csv,False,CRO,-9.0,38.1159,-121.6467,Twitchell Alfalfa,8,3,Csa,Temperate,C3,1.03,data_full_half_hourly_raw_v0_1_US-Tw3.csv,9430179.0,US,22704.0,CRO,Temperate,2013-05-24 00:00:00,2014-12-31 23:30:00,473.0,0.80579,No,North,lat_band_4,,,,,
US-Twt,FLUXNET,2009,2014,FLX_US-Twt_FLUXNET2015_FULLSET_MM_2009-2014_1-4.csv,False,CRO,-7.0,38.1087204,-121.6531,Twitchell Island,8,3,Csa,Temperate,C3,1.03,data_full_half_hourly_raw_v0_1_US-Twt.csv,40246042.0,US,88848.0,CRO,Temperate,2009-04-04 00:00:00,2014-12-31 23:30:00,1851.0,0.88227,Yes,North,lat_band_4,North-West,81.71645547819556,gpp_var_bin_22,4.240213037749864,gpp_mean_bin_19
US-Var,FLUXNET,2000,2014,FLX_US-Var_FLUXNET2015_FULLSET_MM_2000-2014_1-4.csv,False,GRA,129.0,38.4133,-120.9507,Vaira Ranch- Ione,8,3,Csa,Temperate,C3,0.0,data_full_half_hourly_raw_v0_1_US-Var.csv,110098318.0,US,245712.0,GRA,Temperate,2000-11-01 00:00:00,2014-12-31 23:30:00,5119.0,0.98937,Yes,North,lat_band_4,North-West,24.773065983217013,gpp_var_bin_8,1.7452040271659508,gpp_mean_bin_5
US-WCr,FLUXNET,1999,2014,FLX_US-WCr_FLUXNET2015_FULLSET_MM_1999-2014_1-4.csv,False,DBF,520.0,45.8059,-90.0799,Willow Creek,26,4,Dfb,Cold,C3,2.6,data_full_half_hourly_raw_v0_1_US-WCr.csv,77967526.0,US,190704.0,DBF,Cold,1999-02-07 00:00:00,2014-12-31 23:30:00,3973.0,0.68417,Yes,North,lat_band_4,North-West,55.52590524758453,gpp_var_bin_17,3.113987317486786,gpp_mean_bin_11
US-WPT,FLUXNET,2011,2013,FLX_US-WPT_FLUXNET2015_FULLSET_MM_2011-2013_1-4.csv,False,WET,175.0,41.464639,-82.996157,Winous Point North Marsh,25,4,Dfa,Cold,C3,0.0,data_full_half_hourly_raw_v0_1_US-WPT.csv,21531652.0,US,52608.0,WET,Cold,2011-01-01 00:00:00,2013-12-31 23:30:00,1096.0,1.0,Yes,North,lat_band_4,North-West,22.599048662669503,gpp_var_bin_8,1.8361364289461677,gpp_mean_bin_5
US-Whs,FLUXNET,2007,2014,FLX_US-Whs_FLUXNET2015_FULLSET_MM_2007-2014_1-4.csv,False,OSH,1370.0,31.7438,-110.0522,Walnut Gulch Lucky Hills Shrub,7,2,BSk,Arid,C3,55.39,data_full_half_hourly_raw_v0_1_US-Whs.csv,59177837.0,US,131616.0,OSH,Arid,2007-06-30 00:00:00,2014-12-31 23:30:00,2742.0,1.0,Yes,North,lat_band_4,North-West,1.691064450860031,gpp_var_bin_1,0.3505104026942013,gpp_mean_bin_1
US-Wi0,FLUXNET,2002,2002,FLX_US-Wi0_FLUXNET2015_FULLSET_MM_2002-2002_1-4.csv,False,ENF,349.0,46.618778,-91.081444,Young red pine (YRP),26,4,Dfb,Cold,C3,4.14,data_full_half_hourly_raw_v0_1_US-Wi0.csv,4200221.0,US,10272.0,ENF,Cold,2002-04-27 00:00:00,2002-12-14 23:30:00,214.0,0.92241,No,North,lat_band_4,,,,,
US-Wi1,FLUXNET,2003,2003,FLX_US-Wi1_FLUXNET2015_FULLSET_MM_2003-2003_1-4.csv,False,DBF,352.0,46.730472,-91.232944,Intermediate hardwood (IHW),26,4,Dfb,Cold,C3,4.14,data_full_half_hourly_raw_v0_1_US-Wi1.csv,2841430.0,US,7008.0,DBF,Cold,2003-05-24 00:00:00,2003-12-08 23:30:00,146.0,0.73367,No,North,lat_band_4,,,,,
US-Wi2,FLUXNET,2003,2003,FLX_US-Wi2_FLUXNET2015_FULLSET_MM_2003-2003_1-4.csv,False,ENF,395.0,46.686889,-91.152833,Intermediate red pine (IRP),26,4,Dfb,Cold,C3,4.14,data_full_half_hourly_raw_v0_1_US-Wi2.csv,1369401.0,US,3456.0,ENF,Cold,2003-05-23 00:00:00,2003-12-31 23:30:00,72.0,0.32287,No,North,lat_band_4,,,,,
US-Wi3,FLUXNET,2002,2004,FLX_US-Wi3_FLUXNET2015_FULLSET_MM_2002-2004_1-4.csv,False,DBF,411.0,46.634722,-91.098667,Mature hardwood (MHW),26,4,Dfb,Cold,C3,4.14,data_full_half_hourly_raw_v0_1_US-Wi3.csv,9301876.0,US,21360.0,DBF,Cold,2002-05-08 00:00:00,2004-12-12 23:30:00,445.0,0.46842,Yes,North,lat_band_4,,,,,
US-Wi4,FLUXNET,2002,2005,FLX_US-Wi4_FLUXNET2015_FULLSET_MM_2002-2005_1-4.csv,False,ENF,352.0,46.739333,-91.16625,Mature red pine (MRP),26,4,Dfb,Cold,C3,4.14,data_full_half_hourly_raw_v0_1_US-Wi4.csv,13707542.0,US,31296.0,ENF,Cold,2002-05-08 00:00:00,2005-11-07 23:30:00,652.0,0.50938,Yes,North,lat_band_4,,,,,
US-Wi5,FLUXNET,2004,2004,FLX_US-Wi5_FLUXNET2015_FULLSET_MM_2004-2004_1-4.csv,False,ENF,353.0,46.653083,-91.085806,Mixed young jack pine (MYJP),26,4,Dfb,Cold,C3,4.14,data_full_half_hourly_raw_v0_1_US-Wi5.csv,4352301.0,US,11376.0,ENF,Cold,2004-04-20 00:00:00,2004-12-12 23:30:00,237.0,1.0,No,North,lat_band_4,,,,,
US-Wi6,FLUXNET,2002,2003,FLX_US-Wi6_FLUXNET2015_FULLSET_MM_2002-2003_1-4.csv,False,OSH,371.0,46.624889,-91.298222,Pine barrens #1 (PB1),26,4,Dfb,Cold,C3,4.14,data_full_half_hourly_raw_v0_1_US-Wi6.csv,4035924.0,US,9888.0,OSH,Cold,2002-05-06 00:00:00,2003-09-08 23:30:00,206.0,0.41955,No,North,lat_band_4,,,,,
US-Wi7,FLUXNET,2005,2005,FLX_US-Wi7_FLUXNET2015_FULLSET_MM_2005-2005_1-4.csv,False,OSH,335.0,46.649111,-91.069278,Red pine clearcut (RPCC),26,4,Dfb,Cold,C3,4.14,data_full_half_hourly_raw_v0_1_US-Wi7.csv,3150051.0,US,8112.0,OSH,Cold,2005-05-23 00:00:00,2005-11-07 23:30:00,169.0,1.0,No,North,lat_band_4,,,,,
US-Wi8,FLUXNET,2002,2002,FLX_US-Wi8_FLUXNET2015_FULLSET_MM_2002-2002_1-4.csv,False,DBF,348.0,46.722333,-91.252417,Young hardwood clearcut (YHW),26,4,Dfb,Cold,C3,4.14,data_full_half_hourly_raw_v0_1_US-Wi8.csv,3432555.0,US,8400.0,DBF,Cold,2002-05-17 00:00:00,2002-11-07 23:30:00,175.0,1.0,No,North,lat_band_4,,,,,
US-Wi9,FLUXNET,2004,2005,FLX_US-Wi9_FLUXNET2015_FULLSET_MM_2004-2005_1-4.csv,False,ENF,350.0,46.618778,-91.081444,Young Jack pine (YJP),26,4,Dfb,Cold,C3,4.14,data_full_half_hourly_raw_v0_1_US-Wi9.csv,5906347.0,US,15504.0,ENF,Cold,2004-05-01 00:00:00,2005-08-26 23:30:00,323.0,0.66874,No,North,lat_band_4,,,,,
US-Wkg,FLUXNET,2004,2014,FLX_US-Wkg_FLUXNET2015_FULLSET_MM_2004-2014_1-4.csv,False,GRA,1531.0,31.7365,-109.9419,Walnut Gulch Kendall Grasslands,7,2,BSk,Arid,C4,40.93,data_full_half_hourly_raw_v0_1_US-Wkg.csv,83565537.0,US,186768.0,GRA,Arid,2004-05-07 00:00:00,2014-12-31 23:30:00,3891.0,1.0,Yes,North,lat_band_4,North-West,3.166028050585204,gpp_var_bin_2,0.5889886007238928,gpp_mean_bin_2
ZM-Mon,FLUXNET,2000,2009,FLX_ZM-Mon_FLUXNET2015_FULLSET_MM_2000-2009_2-4.csv,False,DBF,1053.0,-15.4391,23.2525,Mongu,11,3,Cwa,Temperate,C3,62.17,data_full_half_hourly_raw_v0_1_ZM-Mon.csv,14299128.0,ZM,32016.0,DBF,Temperate,2000-03-02 00:00:00,2009-07-22 23:30:00,667.0,0.19446,Yes,South,lat_band_3,,,,,
CA-Ca1,AmeriFlux,1996,2010,FLX_CA-Ca1_FLUXNET2015_FULLSET_MM_1996-2010_beta-5.csv,False,ENF,300.0,49.8673,-125.3336,British Columbia - 1949 Douglas-fir stand,15,3,Cfb,Temperate,C3,0.02,data_full_half_hourly_raw_v0_1_CA-Ca1.csv,79117148.0,CA,213456.0,ENF,Temperate,1997-10-25 00:00:00,2010-12-31 23:30:00,4447.0,0.92338,Yes,North,lat_band_4,North-West,68.56420297124859,gpp_var_bin_21,5.412440325124973,gpp_mean_bin_23
CA-Ca2,AmeriFlux,1999,2010,FLX_CA-Ca2_FLUXNET2015_FULLSET_MM_1999-2010_beta-5.csv,False,ENF,300.0,49.8705,-125.2909,British Columbia - Clearcut Douglas-fir stand (harvested winter 1999/2000),9,3,Csb,Temperate,C3,0.02,data_full_half_hourly_raw_v0_1_CA-Ca2.csv,48584140.0,CA,110352.0,ENF,Temperate,2001-01-23 00:00:00,2010-12-31 23:30:00,2299.0,0.63333,Yes,North,lat_band_4,North-West,19.876202110933313,gpp_var_bin_6,2.207910648842792,gpp_mean_bin_6
CA-Ca3,AmeriFlux,2001,2010,FLX_CA-Ca3_FLUXNET2015_FULLSET_MM_2001-2010_beta-3.csv,False,ENF,,49.5346,-124.9004,British Columbia - Pole sapling Douglas-fir stand,9,3,Csb,Temperate,C3,0.0,data_full_half_hourly_raw_v0_1_CA-Ca3.csv,71789813.0,CA,162480.0,ENF,Temperate,2001-09-14 00:00:00,2010-12-31 23:30:00,3385.0,0.99676,Yes,North,lat_band_4,North-West,41.786453895040495,gpp_var_bin_13,4.19101415318028,gpp_mean_bin_18
CA-Cbo,AmeriFlux,1994,2014,FLX_CA-Cbo_FLUXNET2015_FULLSET_MM_1994-2014_beta-5.csv,False,DBF,120.0,44.3167,-79.9333,"Ontario - Mixed Deciduous, Borden Forest Site",26,4,Dfb,Cold,C3,1.09,data_full_half_hourly_raw_v0_1_CA-Cbo.csv,94426217.0,CA,238944.0,DBF,Cold,1997-12-26 00:00:00,2014-12-31 23:30:00,4978.0,0.80097,Yes,North,lat_band_4,North-West,60.37459539767352,gpp_var_bin_19,3.229305245755894,gpp_mean_bin_12
CA-Gro,AmeriFlux,2003,2014,FLX_CA-Gro_FLUXNET2015_FULLSET_MM_2003-2014_beta-4.csv,True,MF,340.0,48.2167,-82.1556,"Ontario - Groundhog River, Boreal Mixedwood Forest",26,4,Dfb,Cold,C3,0.0,data_full_half_hourly_raw_v0_1_CA-Gro.csv,74132529.0,CA,172416.0,MF,Cold,2003-08-29 00:00:00,2014-05-16 23:30:00,3592.0,0.91773,Yes,North,lat_band_4,North-West,32.22799300059413,gpp_var_bin_10,2.828866965390161,gpp_mean_bin_9
CA-NS1,AmeriFlux,2001,2005,FLX_CA-NS1_FLUXNET2015_FULLSET_MM_2001-2005_beta-4.csv,True,ENF,260.0,55.8792,-98.4839,UCI-1850 burn site,27,4,Dfc,Cold,C3,0.0,data_full_half_hourly_raw_v0_1_CA-NS1.csv,22582332.0,CA,54336.0,ENF,Cold,2002-06-26 00:00:00,2005-09-25 23:30:00,1132.0,0.95286,Yes,North,lat_band_5,,,,,
CA-NS2,AmeriFlux,2001,2005,FLX_CA-NS2_FLUXNET2015_FULLSET_MM_2001-2005_beta-4.csv,True,ENF,260.0,55.9058,-98.5247,UCI-1930 burn site,27,4,Dfc,Cold,C3,0.0,data_full_half_hourly_raw_v0_1_CA-NS2.csv,24258916.0,CA,58368.0,ENF,Cold,2001-07-25 00:00:00,2005-08-21 23:30:00,1216.0,0.81666,Yes,North,lat_band_5,,,,,
CA-NS3,AmeriFlux,2001,2005,FLX_CA-NS3_FLUXNET2015_FULLSET_MM_2001-2005_beta-4.csv,True,ENF,260.0,55.9117,-98.3822,UCI-1964 burn site,27,4,Dfc,Cold,C3,0.0,data_full_half_hourly_raw_v0_1_CA-NS3.csv,29998100.0,CA,72960.0,ENF,Cold,2001-07-26 00:00:00,2005-09-22 23:30:00,1520.0,1.0,Yes,North,lat_band_5,,,,,
CA-NS5,AmeriFlux,2001,2005,FLX_CA-NS5_FLUXNET2015_FULLSET_MM_2001-2005_beta-4.csv,True,ENF,260.0,55.8631,-98.485,UCI-1981 burn site,27,4,Dfc,Cold,C3,0.0,data_full_half_hourly_raw_v0_1_CA-NS5.csv,26568354.0,CA,63744.0,ENF,Cold,2001-08-09 00:00:00,2005-09-23 23:30:00,1328.0,0.88122,Yes,North,lat_band_5,,,,,
CA-NS6,AmeriFlux,2001,2005,FLX_CA-NS6_FLUXNET2015_FULLSET_MM_2001-2005_beta-4.csv,True,OSH,244.0,55.9167,-98.9644,UCI-1989 burn site,27,4,Dfc,Cold,C3,0.0,data_full_half_hourly_raw_v0_1_CA-NS6.csv,28723800.0,CA,69696.0,OSH,Cold,2001-10-01 00:00:00,2005-09-21 23:30:00,1452.0,1.0,Yes,North,lat_band_5,,,,,
CA-Qc2,AmeriFlux,2007,2010,FLX_CA-Qc2_FLUXNET2015_FULLSET_MM_2007-2010_beta-4.csv,False,MF,,49.7598,-74.5711,Quebec - 1975 Harvested Black Spruce (HBS75),27,4,Dfc,Cold,C3,0.0,data_full_half_hourly_raw_v0_1_CA-Qc2.csv,19285210.0,CA,42672.0,MF,Cold,2007-10-01 00:00:00,2010-11-28 23:30:00,889.0,0.7697,Yes,North,lat_band_4,,,,,
CA-Qfo,AmeriFlux,2003,2010,FLX_CA-Qfo_FLUXNET2015_FULLSET_MM_2003-2010_beta-4.csv,True,ENF,382.0,49.6925,-74.3421,"Quebec - Eastern Boreal, Mature Black Spruce",27,4,Dfc,Cold,C3,0.0,data_full_half_hourly_raw_v0_1_CA-Qfo.csv,52802868.0,CA,121104.0,ENF,Cold,2003-08-31 00:00:00,2010-12-31 23:30:00,2523.0,0.94142,Yes,North,lat_band_4,,,,,
CA-SF2,AmeriFlux,2001,2006,FLX_CA-SF2_FLUXNET2015_FULLSET_MM_2001-2006_beta-4.csv,True,ENF,520.0,54.2539,-105.8775,"Saskatchewan - Western Boreal, forest burned in 1989",27,4,Dfc,Cold,C3,0.07,data_full_half_hourly_raw_v0_1_CA-SF2.csv,9447622.0,CA,21600.0,ENF,Cold,2003-04-12 00:00:00,2005-09-17 23:30:00,450.0,0.50562,Yes,North,lat_band_5,,,,,
CA-SJ2,AmeriFlux,2002,2010,FLX_CA-SJ2_FLUXNET2015_FULLSET_MM_2002-2010_beta-5.csv,False,ENF,580.0,53.945,-104.649,"Saskatchewan - Western Boreal, Jack Pine forest harvested in 2002",27,4,Dfc,Cold,C3,0.51,data_full_half_hourly_raw_v0_1_CA-SJ2.csv,36835544.0,CA,81168.0,ENF,Cold,2003-11-19 00:00:00,2008-07-15 23:30:00,1691.0,0.99412,Yes,North,lat_band_4,,,,,
CA-TP4,AmeriFlux,2002,2017,FLX_CA-TP4_FLUXNET2015_FULLSET_MM_2002-2017_beta-4.csv,True,ENF,184.0,42.7102,-80.3574,Ontario - Turkey Point 1939 Plantation White Pine,26,4,Dfb,Cold,C3,0.0,data_full_half_hourly_raw_v0_1_CA-TP4.csv,111371537.0,CA,255744.0,ENF,Cold,2003-04-12 00:00:00,2017-12-31 23:30:00,5328.0,0.9907,Yes,North,lat_band_4,North-West,56.06308260767473,gpp_var_bin_17,4.162010797847382,gpp_mean_bin_18
CA-WP1,AmeriFlux,2003,2009,FLX_CA-WP1_FLUXNET2015_FULLSET_MM_2003-2009_beta-5.csv,False,WET,540.0,54.9538,-112.467,"Alberta - Western Peatland - LaBiche River,Black Spruce/Larch Fen",27,4,Dfc,Cold,C3,0.07,data_full_half_hourly_raw_v0_1_CA-WP1.csv,43939582.0,CA,107520.0,WET,Cold,2003-08-01 00:00:00,2009-09-30 23:30:00,2240.0,0.99423,Yes,North,lat_band_5,,,,,
CA-WP2,AmeriFlux,2004,2006,FLX_CA-WP2_FLUXNET2015_FULLSET_MM_2004-2006_beta-5.csv,False,WET,,55.5375,-112.3343,Alberta - Western Peatland - Poor Fen (Sphagnum moss),27,4,Dfc,Cold,C3,0.16,data_full_half_hourly_raw_v0_1_CA-WP2.csv,9330219.0,CA,22464.0,WET,Cold,2004-05-01 00:00:00,2006-10-31 23:30:00,468.0,0.51204,Yes,North,lat_band_5,,,,,
CA-WP3,AmeriFlux,2004,2006,FLX_CA-WP3_FLUXNET2015_FULLSET_MM_2004-2006_beta-5.csv,False,WET,,54.47,-113.32,Alberta - Western Peatland - Rich Fen  (Carex),27,4,Dfc,Cold,C3,0.43,data_full_half_hourly_raw_v0_1_CA-WP3.csv,7206117.0,CA,17184.0,WET,Cold,2004-05-15 00:00:00,2006-10-16 23:30:00,358.0,0.40452,Yes,North,lat_band_5,,,,,
US-AR1,AmeriFlux,2009,2012,FLX_US-AR1_FLUXNET2015_FULLSET_MM_2009-2012_beta-4.csv,True,GRA,611.0,36.4267,-99.42,ARM USDA UNL OSU Woodward Switchgrass 1,14,3,Cfa,Temperate,C4,27.54,data_full_half_hourly_raw_v0_1_US-AR1.csv,26733029.0,US,58848.0,GRA,Temperate,2009-04-30 00:00:00,2012-12-31 23:30:00,1226.0,0.91356,Yes,North,lat_band_4,North-West,18.480790703346106,gpp_var_bin_6,1.4537157202119526,gpp_mean_bin_4
US-AR2,AmeriFlux,2009,2012,FLX_US-AR2_FLUXNET2015_FULLSET_MM_2009-2012_beta-4.csv,True,GRA,646.0,36.6358,-99.5975,ARM USDA UNL OSU Woodward Switchgrass 2,14,3,Cfa,Temperate,C4,27.54,data_full_half_hourly_raw_v0_1_US-AR2.csv,23968969.0,US,52416.0,GRA,Temperate,2009-04-30 00:00:00,2012-08-02 23:30:00,1092.0,0.91688,Yes,North,lat_band_4,North-West,11.628685396977247,gpp_var_bin_5,1.0681474302459524,gpp_mean_bin_3
US-ARM,AmeriFlux,2003,2018,FLX_US-ARM_FLUXNET2015_FULLSET_MM_2003-2018_beta-3.csv,True,CRO,314.0,36.6058,-97.4888,ARM Southern Great Plains site- Lamont,14,3,Cfa,Temperate,mix,15.97,data_full_half_hourly_raw_v0_1_US-ARM.csv,117878083.0,US,259104.0,CRO,Temperate,2003-01-01 00:00:00,2018-12-31 23:30:00,5398.0,0.92368,Yes,North,lat_band_4,North-West,31.933674576081014,gpp_var_bin_10,2.755207038622876,gpp_mean_bin_9
US-ARb,AmeriFlux,2005,2006,FLX_US-ARb_FLUXNET2015_FULLSET_MM_2005-2006_beta-4.csv,True,GRA,424.0,35.5497,-98.0402,ARM Southern Great Plains burn site- Lamont,14,3,Cfa,Temperate,C4,20.41,data_full_half_hourly_raw_v0_1_US-ARb.csv,11547538.0,US,28032.0,GRA,Temperate,2005-03-10 00:00:00,2006-10-31 23:30:00,584.0,0.97171,No,North,lat_band_4,,,,,
US-ARc,AmeriFlux,2005,2006,FLX_US-ARc_FLUXNET2015_FULLSET_MM_2005-2006_beta-4.csv,True,GRA,424.0,35.5465,-98.04,ARM Southern Great Plains control site- Lamont,14,3,Cfa,Temperate,C4,20.41,data_full_half_hourly_raw_v0_1_US-ARc.csv,11913122.0,US,28944.0,GRA,Temperate,2005-03-08 00:00:00,2006-10-31 23:30:00,603.0,1.0,No,North,lat_band_4,,,,,
US-Bar,AmeriFlux,2005,2017,FLX_US-Bar_FLUXNET2015_FULLSET_MM_2005-2017_beta-3.csv,False,DBF,272.0,44.0646,-71.2881,Bartlett Experimental Forest,26,4,Dfb,Cold,C3,0.0,data_full_half_hourly_raw_v0_1_US-Bar.csv,85196427.0,US,206304.0,DBF,Cold,2005-01-01 00:00:00,2017-12-31 23:30:00,4298.0,0.90522,Yes,North,lat_band_4,North-West,43.489682679251615,gpp_var_bin_13,3.176531914452032,gpp_mean_bin_12
US-Bi1,AmeriFlux,2016,2017,FLX_US-Bi1_FLUXNET2015_FULLSET_MM_2016-2017_beta-5.csv,False,CRO,-2.7,38.0992,-121.4993,Bouldin Island Alfalfa,8,3,Csa,Temperate,C3,1.03,data_full_half_hourly_raw_v0_1_US-Bi1.csv,10061313.0,US,23616.0,CRO,Temperate,2016-08-13 00:00:00,2017-12-31 23:30:00,492.0,0.97233,No,North,lat_band_4,,,,,
US-Bi2,AmeriFlux,2017,2017,FLX_US-Bi2_FLUXNET2015_FULLSET_MM_2017-2017_beta-5.csv,False,CRO,-5.0,38.1091,-121.5351,Bouldin Island corn,8,3,Csa,Temperate,C4,1.03,data_full_half_hourly_raw_v0_1_US-Bi2.csv,5043102.0,US,11856.0,CRO,Temperate,2017-04-29 00:00:00,2017-12-31 23:30:00,247.0,1.0,No,North,lat_band_4,,,,,
US-CRT,AmeriFlux,2011,2013,FLX_US-CRT_FLUXNET2015_FULLSET_MM_2011-2013_beta-4.csv,True,CRO,180.0,41.6285,-83.3471,Curtice Walter-Berger cropland,25,4,Dfa,Cold,C3,29.26,data_full_half_hourly_raw_v0_1_US-CRT.csv,23551163.0,US,51936.0,CRO,Cold,2011-01-01 00:00:00,2013-12-31 23:30:00,1082.0,0.98723,Yes,North,lat_band_4,North-West,64.82037614507979,gpp_var_bin_20,2.461661650022507,gpp_mean_bin_7
US-Dk1,AmeriFlux,2001,2008,FLX_US-Dk1_FLUXNET2015_FULLSET_MM_2001-2008_beta-5.csv,False,GRA,168.0,35.9712,-79.0934,Duke Forest-open field,14,3,Cfa,Temperate,C3,1.95,data_full_half_hourly_raw_v0_1_US-Dk1.csv,49402459.0,US,115104.0,GRA,Temperate,2001-05-02 00:00:00,2008-12-31 23:30:00,2398.0,0.85612,Yes,North,lat_band_4,,,,,
US-Dk2,AmeriFlux,2001,2008,FLX_US-Dk2_FLUXNET2015_FULLSET_MM_2001-2008_beta-5.csv,False,DBF,168.0,35.9736,-79.1004,Duke Forest-hardwoods,14,3,Cfa,Temperate,C3,1.95,data_full_half_hourly_raw_v0_1_US-Dk2.csv,53664947.0,US,126336.0,DBF,Temperate,2001-05-19 00:00:00,2008-12-31 23:30:00,2632.0,0.9454,Yes,North,lat_band_4,,,,,
US-Dk3,AmeriFlux,2001,2008,FLX_US-Dk3_FLUXNET2015_FULLSET_MM_2001-2008_beta-5.csv,False,ENF,163.0,35.9782,-79.0942,Duke Forest - loblolly pine,14,3,Cfa,Temperate,C3,1.95,data_full_half_hourly_raw_v0_1_US-Dk3.csv,49651642.0,US,121200.0,ENF,Temperate,2001-05-02 00:00:00,2008-12-31 23:30:00,2525.0,0.90146,Yes,North,lat_band_4,,,,,
US-FR2,AmeriFlux,2005,2008,FLX_US-FR2_FLUXNET2015_FULLSET_MM_2005-2008_beta-3.csv,False,WSA,271.9,29.9495,-97.9962,Freeman Ranch- Mesquite Juniper,14,3,Cfa,Temperate,C3,18.37,data_full_half_hourly_raw_v0_1_US-FR2.csv,29333731.0,US,65520.0,WSA,Temperate,2005-01-01 00:00:00,2008-12-31 23:30:00,1365.0,0.93429,Yes,North,lat_band_4,,,,,
US-Fmf,AmeriFlux,2005,2010,FLX_US-Fmf_FLUXNET2015_FULLSET_MM_2005-2010_beta-5.csv,False,ENF,2160.0,35.1426,-111.7273,Flagstaff - Managed Forest,18,4,Dsb,Cold,C3,30.3,data_full_half_hourly_raw_v0_1_US-Fmf.csv,39307470.0,US,88848.0,ENF,Cold,2005-07-30 00:00:00,2010-12-31 23:30:00,1851.0,0.93438,Yes,North,lat_band_4,North-West,17.36114863488535,gpp_var_bin_6,2.9342099233618866,gpp_mean_bin_9
US-Fuf,AmeriFlux,2005,2010,FLX_US-Fuf_FLUXNET2015_FULLSET_MM_2005-2010_beta-5.csv,False,ENF,2180.0,35.089,-111.762,Flagstaff - Unmanaged Forest,18,4,Dsb,Cold,C3,30.3,data_full_half_hourly_raw_v0_1_US-Fuf.csv,38361718.0,US,86544.0,ENF,Cold,2005-09-08 00:00:00,2010-12-31 23:30:00,1803.0,0.9289,Yes,North,lat_band_4,,,,,
US-Ho1,AmeriFlux,1996,2018,FLX_US-Ho1_FLUXNET2015_FULLSET_MM_1996-2018_beta-3.csv,False,ENF,60.0,45.2041,-68.7402,Howland Forest (main tower),26,4,Dfb,Cold,C3,0.0,data_full_half_hourly_raw_v0_1_US-Ho1.csv,117848581.0,US,324000.0,ENF,Cold,1996-01-31 00:00:00,2018-06-30 23:30:00,6750.0,0.82448,Yes,North,lat_band_4,North-West,43.25454631604642,gpp_var_bin_13,3.8934569509672974,gpp_mean_bin_16
US-KFS,AmeriFlux,2007,2017,FLX_US-KFS_FLUXNET2015_FULLSET_MM_2007-2017_beta-5.csv,False,GRA,310.0,39.0561,-95.1907,Kansas Field Station,25,4,Dfa,Cold,mix,48.63,data_full_half_hourly_raw_v0_1_US-KFS.csv,68734331.0,US,163440.0,GRA,Cold,2007-07-02 00:00:00,2017-12-31 23:30:00,3405.0,0.88764,Yes,North,lat_band_4,North-West,36.237085306644765,gpp_var_bin_11,2.988655706601465,gpp_mean_bin_10
US-MMS,AmeriFlux,1999,2017,FLX_US-MMS_FLUXNET2015_FULLSET_MM_1999-2017_beta-3.csv,True,DBF,275.0,39.3232,-86.4131,Morgan Monroe State Forest,25,4,Dfa,Cold,C3,42.28,,,,,,,,,,,Yes,North,lat_band_4,,,,,
US-Me2,AmeriFlux,2002,2017,FLX_US-Me2_FLUXNET2015_FULLSET_MM_2002-2017_beta-5.csv,True,ENF,1253.0,44.4523,-121.5574,Metolius mature ponderosa pine,18,4,Dsb,Cold,C3,0.03,data_full_half_hourly_raw_v0_1_US-Me2.csv,97235990.0,US,230688.0,ENF,Cold,2002-01-01 00:00:00,2017-12-31 23:30:00,4806.0,0.82238,Yes,North,lat_band_4,,,,,
US-Men,AmeriFlux,2014,2017,FLX_US-Men_FLUXNET2015_FULLSET_MM_2014-2017_beta-3.csv,False,WAT,260.0,43.0772,-89.403,"Lake Mendota, Center for Limnology Site",25,4,Dfa,Cold,C3,2.35,data_full_half_hourly_raw_v0_1_US-Men.csv,25597777.0,US,62544.0,WAT,Cold,2014-01-01 00:00:00,2017-12-31 23:30:00,1303.0,0.89185,No,North,lat_band_4,,,,,
US-Mpj,AmeriFlux,2008,2017,FLX_US-Mpj_FLUXNET2015_FULLSET_MM_2008-2017_beta-3.csv,False,OSH,2138.0,34.4384,-106.2377,Mountainair Pinyon-Juniper Woodland,7,2,BSk,Arid,C3,0.24,data_full_half_hourly_raw_v0_1_US-Mpj.csv,71735446.0,US,167232.0,OSH,Arid,2008-01-01 00:00:00,2017-12-31 23:30:00,3484.0,0.95374,Yes,North,lat_band_4,North-West,4.601556179870419,gpp_var_bin_3,2.013055079759529,gpp_mean_bin_6
US-OWC,AmeriFlux,2015,2016,FLX_US-OWC_FLUXNET2015_FULLSET_MM_2015-2016_beta-5.csv,False,WET,174.0,41.3795,-82.5125,Old Woman Creek,25,4,Dfa,Cold,C3,0.0,data_full_half_hourly_raw_v0_1_US-OWC.csv,4547681.0,US,12144.0,WET,Cold,2015-07-18 00:00:00,2016-10-21 23:30:00,253.0,0.54762,No,North,lat_band_4,,,,,
US-Oho,AmeriFlux,2004,2013,FLX_US-Oho_FLUXNET2015_FULLSET_MM_2004-2013_beta-5.csv,True,DBF,230.0,41.5545,-83.8438,Oak Openings,25,4,Dfa,Cold,C3,29.26,data_full_half_hourly_raw_v0_1_US-Oho.csv,73051872.0,US,163824.0,DBF,Cold,2004-01-01 00:00:00,2013-12-31 23:30:00,3413.0,0.9343,Yes,North,lat_band_4,North-West,95.51676166149203,gpp_var_bin_24,4.866559705115148,gpp_mean_bin_21
US-Pnp,AmeriFlux,2016,2017,FLX_US-Pnp_FLUXNET2015_FULLSET_MM_2016-2017_beta-3.csv,False,WAT,260.0,43.0896,-89.4158,"Lake Mendota, Picnic Point Site",25,4,Dfa,Cold,C3,2.35,data_full_half_hourly_raw_v0_1_US-Pnp.csv,9484878.0,US,25968.0,WAT,Cold,2016-06-24 00:00:00,2017-12-31 23:30:00,541.0,0.97302,No,North,lat_band_4,,,,,
US-Prr,AmeriFlux,2010,2016,FLX_US-Prr_FLUXNET2015_FULLSET_MM_2010-2016_beta-5.csv,True,ENF,210.0,65.1237,-147.4876,Poker Flat Research Range Black Spruce Forest,27,4,Dfc,Cold,C3,0.0,data_full_half_hourly_raw_v0_1_US-Prr.csv,40790058.0,US,101040.0,ENF,Cold,2010-10-29 00:00:00,2016-12-31 23:30:00,2105.0,0.93307,Yes,North,lat_band_5,North-West,5.087309269237732,gpp_var_bin_3,1.0773461088488037,gpp_mean_bin_3
US-Rls,AmeriFlux,2014,2017,FLX_US-Rls_FLUXNET2015_FULLSET_MM_2014-2017_beta-5.csv,False,CSH,1608.0,43.1439,-116.7356,RCEW Low Sagebrush,7,2,BSk,Arid,C3,0.08,data_full_half_hourly_raw_v0_1_US-Rls.csv,23462374.0,US,52704.0,CSH,Arid,2014-09-11 00:00:00,2017-12-31 23:30:00,1098.0,0.90894,Yes,North,lat_band_4,,,,,
US-Rms,AmeriFlux,2014,2017,FLX_US-Rms_FLUXNET2015_FULLSET_MM_2014-2017_beta-5.csv,False,CSH,2111.0,43.0645,-116.7486,RCEW Mountain Big Sagebrush,18,4,Dsb,Cold,C3,0.08,data_full_half_hourly_raw_v0_1_US-Rms.csv,23163316.0,US,52944.0,CSH,Cold,2014-09-16 00:00:00,2017-12-31 23:30:00,1103.0,0.91687,Yes,North,lat_band_4,,,,,
US-Ro1,AmeriFlux,2004,2016,FLX_US-Ro1_FLUXNET2015_FULLSET_MM_2004-2016_beta-5.csv,False,CRO,260.0,44.7143,-93.0898,Rosemount- G21,25,4,Dfa,Cold,rotation,24.84,data_full_half_hourly_raw_v0_1_US-Ro1.csv,101478293.0,US,223200.0,CRO,Cold,2004-01-01 00:00:00,2016-12-31 23:30:00,4650.0,0.97915,Yes,North,lat_band_4,North-West,74.5641017039563,gpp_var_bin_22,2.744925674518119,gpp_mean_bin_8
US-Ro4,AmeriFlux,2014,2017,FLX_US-Ro4_FLUXNET2015_FULLSET_MM_2014-2017_beta-5.csv,False,GRA,274.0,44.6781,-93.0723,Rosemount Prairie,25,4,Dfa,Cold,C4,24.84,data_full_half_hourly_raw_v0_1_US-Ro4.csv,28134410.0,US,62592.0,GRA,Cold,2014-01-01 00:00:00,2017-12-31 23:30:00,1304.0,0.89254,Yes,North,lat_band_4,,,,,
US-Ro5,AmeriFlux,2017,2017,FLX_US-Ro5_FLUXNET2015_FULLSET_MM_2017-2017_beta-5.csv,False,CRO,283.0,44.691,-93.0576,Rosemount I18_South,25,4,Dfa,Cold,rotation,24.84,data_full_half_hourly_raw_v0_1_US-Ro5.csv,7224928.0,US,17520.0,CRO,Cold,2017-01-01 00:00:00,2017-12-31 23:30:00,365.0,1.0,No,North,lat_band_4,,,,,
US-Ro6,AmeriFlux,2017,2017,FLX_US-Ro6_FLUXNET2015_FULLSET_MM_2017-2017_beta-5.csv,False,CRO,282.0,44.6946,-93.0578,Rosemount I18_North,25,4,Dfa,Cold,rotation,24.84,data_full_half_hourly_raw_v0_1_US-Ro6.csv,7332010.0,US,17520.0,CRO,Cold,2017-01-01 00:00:00,2017-12-31 23:30:00,365.0,1.0,No,North,lat_band_4,,,,,
US-Rws,AmeriFlux,2014,2017,FLX_US-Rws_FLUXNET2015_FULLSET_MM_2014-2017_beta-5.csv,False,OSH,1425.0,43.1675,-116.7132,Reynolds Creek Wyoming big sagebrush,7,2,BSk,Arid,C3,0.08,data_full_half_hourly_raw_v0_1_US-Rws.csv,24758556.0,US,55200.0,OSH,Arid,2014-10-03 00:00:00,2017-12-31 23:30:00,1150.0,0.96965,Yes,North,lat_band_4,North-West,3.432049313054901,gpp_var_bin_2,1.0046901481853519,gpp_mean_bin_3
US-SRG,AmeriFlux,2008,2017,FLX_US-SRG_FLUXNET2015_FULLSET_MM_2008-2017_beta-5.csv,True,GRA,1291.0,31.7894,-110.8277,Santa Rita Grassland,6,2,BSh,Arid,C4,55.39,data_full_half_hourly_raw_v0_1_US-SRG.csv,78642860.0,US,171312.0,GRA,Arid,2008-03-10 00:00:00,2017-12-31 23:30:00,3569.0,0.99581,Yes,North,lat_band_4,North-West,8.786425080313506,gpp_var_bin_4,1.2060039983095983,gpp_mean_bin_3
US-Seg,AmeriFlux,2007,2017,FLX_US-Seg_FLUXNET2015_FULLSET_MM_2007-2017_beta-3.csv,False,GRA,1622.0,34.3623,-106.7019,Sevilleta grassland,5,2,BWk,Arid,mix,0.24,data_full_half_hourly_raw_v0_1_US-Seg.csv,80288925.0,US,183984.0,GRA,Arid,2007-01-01 00:00:00,2017-12-31 23:30:00,3833.0,0.95396,Yes,North,lat_band_4,North-West,1.398976750954821,gpp_var_bin_1,0.25595480398524956,gpp_mean_bin_1
US-Ses,AmeriFlux,2007,2017,FLX_US-Ses_FLUXNET2015_FULLSET_MM_2007-2017_beta-3.csv,False,OSH,1593.0,34.3349,-106.7442,Sevilleta shrubland,5,2,BWk,Arid,C3,0.24,data_full_half_hourly_raw_v0_1_US-Ses.csv,83255223.0,US,190272.0,OSH,Arid,2007-01-01 00:00:00,2017-12-31 23:30:00,3964.0,0.98656,Yes,North,lat_band_4,North-West,0.7380326707775187,gpp_var_bin_1,0.4020837876170769,gpp_mean_bin_2
US-Tw1,AmeriFlux,2011,2017,FLX_US-Tw1_FLUXNET2015_FULLSET_MM_2011-2017_beta-5.csv,True,WET,-5.0,38.1074,-121.6469,Twitchell Wetland West Pond,8,3,Csa,Temperate,C3,1.03,data_full_half_hourly_raw_v0_1_US-Tw1.csv,33160645.0,US,76992.0,WET,Temperate,2011-04-12 00:00:00,2017-10-26 23:30:00,1604.0,0.67113,Yes,North,lat_band_4,,,,,
US-Tw2,AmeriFlux,2012,2013,FLX_US-Tw2_FLUXNET2015_FULLSET_MM_2012-2013_beta-4.csv,True,CRO,-5.0,38.1047,-121.6433,Twitchell Corn,8,3,Csa,Temperate,C4,1.03,data_full_half_hourly_raw_v0_1_US-Tw2.csv,7043481.0,US,16896.0,CRO,Temperate,2012-05-22 00:00:00,2013-05-08 23:30:00,352.0,1.0,No,North,lat_band_4,,,,,
US-Tw4,AmeriFlux,2013,2017,FLX_US-Tw4_FLUXNET2015_FULLSET_MM_2013-2017_beta-5.csv,True,WET,-5.0,38.1027,-121.6413,Twitchell East End Wetland,8,3,Csa,Temperate,C3,1.03,data_full_half_hourly_raw_v0_1_US-Tw4.csv,27778176.0,US,59808.0,WET,Temperate,2013-11-27 00:00:00,2017-12-31 23:30:00,1246.0,0.83289,Yes,North,lat_band_4,North-West,43.08873681329381,gpp_var_bin_13,3.785746154360202,gpp_mean_bin_15
US-UMB,AmeriFlux,2007,2017,FLX_US-UMB_FLUXNET2015_FULLSET_MM_2007-2017_beta-4.csv,True,DBF,234.0,45.5598,-84.7138,Univ. of Mich. Biological Station,26,4,Dfb,Cold,C3,10.72,data_full_half_hourly_raw_v0_1_US-UMB.csv,75432255.0,US,191904.0,DBF,Cold,2007-01-01 00:00:00,2017-12-31 23:30:00,3998.0,0.99502,Yes,North,lat_band_4,North-West,60.48459728883334,gpp_var_bin_19,3.668302830503261,gpp_mean_bin_15
US-UMd,AmeriFlux,2007,2017,FLX_US-UMd_FLUXNET2015_FULLSET_MM_2007-2017_beta-4.csv,True,DBF,239.0,45.5625,-84.6975,UMBS Disturbance,26,4,Dfb,Cold,C3,10.72,data_full_half_hourly_raw_v0_1_US-UMd.csv,70907532.0,US,178464.0,DBF,Cold,2007-05-25 00:00:00,2017-12-31 23:30:00,3718.0,0.95973,Yes,North,lat_band_4,North-West,54.152843792764095,gpp_var_bin_16,3.6533623233708528,gpp_mean_bin_15
US-Uaf,AmeriFlux,2003,2017,FLX_US-Uaf_FLUXNET2015_FULLSET_MM_2003-2017_beta-5.csv,False,ENF,155.0,64.8663,-147.8555,"University of Alaska, Fairbanks",27,4,Dfc,Cold,C3,0.0,data_full_half_hourly_raw_v0_1_US-Uaf.csv,76640314.0,US,172512.0,ENF,Cold,2003-03-02 00:00:00,2017-10-18 23:30:00,3594.0,0.6724,Yes,North,lat_band_5,,,,,
US-Vcm,AmeriFlux,2007,2017,FLX_US-Vcm_FLUXNET2015_FULLSET_MM_2007-2017_beta-3.csv,False,ENF,3003.0,35.8884,-106.5321,Valles Caldera Mixed Conifer,27,4,Dfc,Cold,C3,0.04,data_full_half_hourly_raw_v0_1_US-Vcm.csv,63450985.0,US,154512.0,ENF,Cold,2007-01-01 00:00:00,2017-12-31 23:30:00,3219.0,0.80114,Yes,North,lat_band_4,North-West,7.272195170954333,gpp_var_bin_3,1.5435640248165083,gpp_mean_bin_4
US-Vcp,AmeriFlux,2007,2017,FLX_US-Vcp_FLUXNET2015_FULLSET_MM_2007-2017_beta-5.csv,False,ENF,2542.0,35.8624,-106.5974,Valles Caldera Ponderosa Pine,26,4,Dfb,Cold,C3,0.04,data_full_half_hourly_raw_v0_1_US-Vcp.csv,72934242.0,US,174528.0,ENF,Cold,2007-01-01 00:00:00,2017-12-31 23:30:00,3636.0,0.90493,Yes,North,lat_band_4,North-West,21.728225530965723,gpp_var_bin_7,2.753626018068032,gpp_mean_bin_8
US-Wgr,AmeriFlux,2015,2015,FLX_US-Wgr_FLUXNET2015_FULLSET_MM_2015-2015_beta-5.csv,False,CRO,52.0,45.1129,-122.656,Willamette Grass,9,3,Csb,Temperate,C3,0.28,data_full_half_hourly_raw_v0_1_US-Wgr.csv,5942441.0,US,15264.0,CRO,Temperate,2015-01-13 00:00:00,2015-12-07 23:30:00,318.0,0.96657,No,North,lat_band_4,,,,,
US-Wjs,AmeriFlux,2007,2017,FLX_US-Wjs_FLUXNET2015_FULLSET_MM_2007-2017_beta-3.csv,False,SAV,1931.0,34.4255,-105.8615,Willard Juniper Savannah,7,2,BSk,Arid,C3,0.14,data_full_half_hourly_raw_v0_1_US-Wjs.csv,76127948.0,US,177168.0,SAV,Arid,2007-05-05 00:00:00,2017-12-31 23:30:00,3691.0,0.94787,Yes,North,lat_band_4,North-West,4.891320049951716,gpp_var_bin_3,1.7919999877501596,gpp_mean_bin_5
BE-Bra,ICOS2020,1996,2020,FLX_BE-Bra_FLUXNET2015_FULLSET_MM_1996-2020_beta-3.csv,True,MF,16.0,51.30761,4.51984,Brasschaat,15,3,Cfb,Temperate,C3,0.0,data_full_half_hourly_raw_v0_1_BE-Bra.csv,137821806.0,BE,331920.0,MF,Temperate,1999-01-20 00:00:00,2020-12-31 23:30:00,6915.0,0.86254,Yes,North,lat_band_4,North-East,50.926598655792105,gpp_var_bin_15,3.926488782805194,gpp_mean_bin_16
BE-Dor,ICOS2020,2011,2020,FLX_BE-Dor_FLUXNET2015_FULLSET_MM_2011-2020_beta-3.csv,False,GRA,247.0,50.31135,4.968591,Dorinne,15,3,Cfb,Temperate,C3,0.38,data_full_half_hourly_raw_v0_1_BE-Dor.csv,66706712.0,BE,167568.0,GRA,Temperate,2011-01-01 00:00:00,2020-12-31 23:30:00,3491.0,0.95565,Yes,North,lat_band_4,North-East,82.65958225085471,gpp_var_bin_23,5.962763350346262,gpp_mean_bin_24
BE-Lcr,ICOS2020,2019,2020,FLX_BE-Lcr_FLUXNET2015_FULLSET_MM_2019-2020_beta-3.csv,False,DBF,6.0,51.11218,3.85043,Lochristi,15,3,Cfb,Temperate,C3,0.0,data_full_half_hourly_raw_v0_1_BE-Lcr.csv,11988594.0,BE,32976.0,DBF,Temperate,2019-01-01 00:00:00,2020-12-31 23:30:00,687.0,0.93981,No,North,lat_band_4,,,,,
BE-Lon,ICOS2020,2004,2020,FLX_BE-Lon_FLUXNET2015_FULLSET_MM_2004-2020_beta-3.csv,True,CRO,170.0,50.55162,4.746234,Lonzee,15,3,Cfb,Temperate,rotation,0.38,data_full_half_hourly_raw_v0_1_BE-Lon.csv,124896248.0,BE,290880.0,CRO,Temperate,2004-04-01 00:00:00,2020-12-31 23:30:00,6060.0,0.99036,Yes,North,lat_band_4,North-East,71.52444172014006,gpp_var_bin_21,3.622013638735848,gpp_mean_bin_14
BE-Maa,ICOS2020,2016,2020,FLX_BE-Maa_FLUXNET2015_FULLSET_MM_2016-2020_beta-3.csv,False,CSH,87.0,50.97987,5.631851,Maasmechelen,15,3,Cfb,Temperate,C3,0.43,data_full_half_hourly_raw_v0_1_BE-Maa.csv,33614924.0,BE,80736.0,CSH,Temperate,2016-01-01 00:00:00,2020-12-31 23:30:00,1682.0,0.92063,Yes,North,lat_band_4,,,,,
BE-Vie,ICOS2020,1996,2020,FLX_BE-Vie_FLUXNET2015_FULLSET_MM_1996-2020_beta-3.csv,True,MF,493.0,50.30493,5.99812,Vielsalm,26,4,Dfb,Cold,C3,0.43,data_full_half_hourly_raw_v0_1_BE-Vie.csv,168315116.0,BE,413712.0,MF,Cold,1996-08-01 00:00:00,2020-12-31 23:30:00,8619.0,0.96636,Yes,North,lat_band_4,North-East,56.80776302996875,gpp_var_bin_18,4.767180137893704,gpp_mean_bin_21
CH-Aws,ICOS2020,2006,2020,FLX_CH-Aws_FLUXNET2015_FULLSET_MM_2006-2020_beta-3.csv,True,GRA,1988.0,46.583306,9.790417,Alp Weissenstein,29,5,ET,Polar,C3,1.47,data_full_half_hourly_raw_v0_1_CH-Aws.csv,66813659.0,CH,161664.0,GRA,Polar,2006-06-23 00:00:00,2020-12-31 23:30:00,3368.0,0.63475,Yes,North,lat_band_4,,,,,
CH-Cha,ICOS2020,2005,2020,FLX_CH-Cha_FLUXNET2015_FULLSET_MM_2005-2020_beta-3.csv,True,GRA,393.0,47.21022,8.41044,Chamau,26,4,Dfb,Cold,C3,0.0,data_full_half_hourly_raw_v0_1_CH-Cha.csv,110146216.0,CH,253872.0,GRA,Cold,2005-09-09 00:00:00,2020-12-31 23:30:00,5289.0,0.94565,Yes,North,lat_band_4,North-East,137.05538540402603,gpp_var_bin_25,7.19158414776844,gpp_mean_bin_25
CH-Dav,ICOS2020,1997,2020,FLX_CH-Dav_FLUXNET2015_FULLSET_MM_1997-2020_beta-3.csv,True,ENF,1639.0,46.81533,9.85591,Davos,27,4,Dfc,Cold,C3,1.47,data_full_half_hourly_raw_v0_1_CH-Dav.csv,171198408.0,CH,415968.0,ENF,Cold,1997-01-01 00:00:00,2020-12-31 23:30:00,8666.0,0.98859,Yes,North,lat_band_4,North-East,54.172881845668414,gpp_var_bin_17,3.4743876684999804,gpp_mean_bin_14
CH-Fru,ICOS2020,2005,2020,FLX_CH-Fru_FLUXNET2015_FULLSET_MM_2005-2020_beta-3.csv,True,GRA,982.0,47.11583,8.53778,Frebel,26,4,Dfb,Cold,C3,0.0,data_full_half_hourly_raw_v0_1_CH-Fru.csv,108832836.0,CH,253296.0,GRA,Cold,2005-08-07 00:00:00,2020-12-31 23:30:00,5277.0,0.93797,Yes,North,lat_band_4,North-East,97.12947834007551,gpp_var_bin_25,5.666031845808611,gpp_mean_bin_24
CH-Lae,ICOS2020,2004,2020,FLX_CH-Lae_FLUXNET2015_FULLSET_MM_2004-2020_beta-3.csv,True,MF,689.0,47.47833,8.36439,Laegern,26,4,Dfb,Cold,C3,0.0,data_full_half_hourly_raw_v0_1_CH-Lae.csv,116210397.0,CH,288384.0,MF,Cold,2004-04-09 00:00:00,2020-12-17 23:30:00,6008.0,0.9854,Yes,North,lat_band_4,North-East,104.7739680440226,gpp_var_bin_25,4.340532983968815,gpp_mean_bin_20
CH-Oe2,ICOS2020,2004,2020,FLX_CH-Oe2_FLUXNET2015_FULLSET_MM_2004-2020_beta-3.csv,True,CRO,452.0,47.28642,7.73375,Oensingen crop,26,4,Dfb,Cold,C3,0.11,data_full_half_hourly_raw_v0_1_CH-Oe2.csv,122339892.0,CH,294192.0,CRO,Cold,2004-01-01 00:00:00,2020-12-31 23:30:00,6129.0,0.98696,Yes,North,lat_band_4,North-East,66.60428769539226,gpp_var_bin_21,3.7362781822276516,gpp_mean_bin_15
CZ-BK1,ICOS2020,2004,2020,FLX_CZ-BK1_FLUXNET2015_FULLSET_MM_2004-2020_beta-3.csv,True,ENF,875.0,49.50208,18.53688,Bily Kriz forest,26,4,Dfb,Cold,C3,0.0,data_full_half_hourly_raw_v0_1_CZ-BK1.csv,111009683.0,CZ,269760.0,ENF,Cold,2004-01-01 00:00:00,2020-12-31 23:30:00,5620.0,0.90499,Yes,North,lat_band_4,North-East,75.45918820880367,gpp_var_bin_22,5.220778779610068,gpp_mean_bin_23
CZ-KrP,ICOS2020,2014,2020,FLX_CZ-KrP_FLUXNET2015_FULLSET_MM_2014-2020_beta-3.csv,False,CRO,534.0,49.573257,15.078773,Kresin u Pacova,26,4,Dfb,Cold,unknown,0.0,data_full_half_hourly_raw_v0_1_CZ-KrP.csv,53551679.0,CZ,122736.0,CRO,Cold,2014-01-01 00:00:00,2020-12-31 23:30:00,2557.0,1.0,Yes,North,lat_band_4,North-East,45.60306892438768,gpp_var_bin_14,3.1357315935979755,gpp_mean_bin_11
CZ-Lnz,ICOS2020,2015,2020,FLX_CZ-Lnz_FLUXNET2015_FULLSET_MM_2015-2020_beta-3.csv,True,DBF,150.0,48.68155,16.946331,Lanzhot,26,4,Dfb,Cold,C3,7.36,data_full_half_hourly_raw_v0_1_CZ-Lnz.csv,42122333.0,CZ,102384.0,DBF,Cold,2015-01-01 00:00:00,2020-12-31 23:30:00,2133.0,0.97308,Yes,North,lat_band_4,North-East,85.30054304083937,gpp_var_bin_23,5.055569557933396,gpp_mean_bin_22
CZ-RAJ,ICOS2020,2012,2020,FLX_CZ-RAJ_FLUXNET2015_FULLSET_MM_2012-2020_beta-3.csv,True,ENF,649.0,49.4437236,16.6965125,Rajec,26,4,Dfb,Cold,C3,0.0,data_full_half_hourly_raw_v0_1_CZ-RAJ.csv,65198714.0,CZ,153984.0,ENF,Cold,2012-01-01 00:00:00,2020-12-31 23:30:00,3208.0,0.97567,Yes,North,lat_band_4,North-East,44.22307381171898,gpp_var_bin_13,4.240506570312055,gpp_mean_bin_19
CZ-Stn,ICOS2020,2010,2020,FLX_CZ-Stn_FLUXNET2015_FULLSET_MM_2010-2020_beta-3.csv,True,DBF,562.0,49.035975,17.9699,Stitna,26,4,Dfb,Cold,C3,0.0,data_full_half_hourly_raw_v0_1_CZ-Stn.csv,76744598.0,CZ,187872.0,DBF,Cold,2010-01-01 00:00:00,2020-12-31 23:30:00,3914.0,0.97412,Yes,North,lat_band_4,North-East,66.20388658414696,gpp_var_bin_20,3.9978783507610793,gpp_mean_bin_17
CZ-wet,ICOS2020,2006,2020,FLX_CZ-wet_FLUXNET2015_FULLSET_MM_2006-2020_beta-3.csv,True,WET,426.0,49.02465,14.77035,Trebon (CZECHWET),26,4,Dfb,Cold,C3,0.0,data_full_half_hourly_raw_v0_1_CZ-wet.csv,109241029.0,CZ,255792.0,WET,Cold,2006-04-29 00:00:00,2020-12-31 23:30:00,5329.0,0.99403,Yes,North,lat_band_4,North-East,37.04429481803617,gpp_var_bin_11,3.0659143891160863,gpp_mean_bin_10
DE-Akm,ICOS2020,2009,2020,FLX_DE-Akm_FLUXNET2015_FULLSET_MM_2009-2020_beta-3.csv,True,WET,-1.0,53.86617,13.68342,Anklam,26,4,Dfb,Cold,C3,0.0,data_full_half_hourly_raw_v0_1_DE-Akm.csv,43603944.0,DE,108432.0,WET,Cold,2009-11-01 00:00:00,2020-10-03 23:30:00,2259.0,0.56617,Yes,North,lat_band_4,,,,,
DE-Geb,ICOS2020,2001,2020,FLX_DE-Geb_FLUXNET2015_FULLSET_MM_2001-2020_beta-3.csv,True,CRO,161.5,51.09973,10.91463,Gebesee,26,4,Dfb,Cold,C3,0.0,data_full_half_hourly_raw_v0_1_DE-Geb.csv,151108450.0,DE,346656.0,CRO,Cold,2001-01-17 00:00:00,2020-12-31 23:30:00,7222.0,0.99081,Yes,North,lat_band_4,North-East,52.85522679323361,gpp_var_bin_16,3.030584213919702,gpp_mean_bin_10
DE-Gri,ICOS2020,2004,2020,FLX_DE-Gri_FLUXNET2015_FULLSET_MM_2004-2020_beta-3.csv,True,GRA,385.0,50.95004,13.51259,Grillenburg,26,4,Dfb,Cold,C3,0.0,data_full_half_hourly_raw_v0_1_DE-Gri.csv,120679560.0,DE,283536.0,GRA,Cold,2004-01-01 00:00:00,2020-12-31 23:30:00,5907.0,0.95121,Yes,North,lat_band_4,North-East,51.127933221532444,gpp_var_bin_16,4.146009108618204,gpp_mean_bin_18
DE-Hai,ICOS2020,2000,2020,FLX_DE-Hai_FLUXNET2015_FULLSET_MM_2000-2020_beta-3.csv,True,DBF,430.0,51.07921,10.45217,Hainich,26,4,Dfb,Cold,C3,0.0,data_full_half_hourly_raw_v0_1_DE-Hai.csv,146647181.0,DE,348000.0,DBF,Cold,2000-01-01 00:00:00,2020-12-31 23:30:00,7250.0,0.94512,Yes,North,lat_band_4,North-East,64.4380834089021,gpp_var_bin_20,4.193702678744192,gpp_mean_bin_19
DE-HoH,ICOS2020,2015,2020,FLX_DE-HoH_FLUXNET2015_FULLSET_MM_2015-2020_beta-3.csv,True,DBF,193.0,52.08656,11.22235,Hohes Holz,26,4,Dfb,Cold,C3,0.0,data_full_half_hourly_raw_v0_1_DE-HoH.csv,43995285.0,DE,104736.0,DBF,Cold,2015-01-01 00:00:00,2020-12-31 23:30:00,2182.0,0.99544,Yes,North,lat_band_4,North-East,71.98465920545313,gpp_var_bin_22,4.6537594312732535,gpp_mean_bin_21
DE-Hzd,ICOS2020,2010,2020,FLX_DE-Hzd_FLUXNET2015_FULLSET_MM_2010-2020_beta-3.csv,True,DBF,395.0,50.96381,13.48978,Hetzdorf,26,4,Dfb,Cold,C3,0.0,data_full_half_hourly_raw_v0_1_DE-Hzd.csv,56205637.0,DE,132192.0,DBF,Cold,2010-08-02 00:00:00,2020-12-31 23:30:00,2754.0,0.72378,Yes,North,lat_band_4,,,,,
DE-Kli,ICOS2020,2004,2020,FLX_DE-Kli_FLUXNET2015_FULLSET_MM_2004-2020_beta-3.csv,True,CRO,478.0,50.89306,13.52238,Klingenberg,26,4,Dfb,Cold,C3,0.0,data_full_half_hourly_raw_v0_1_DE-Kli.csv,115031759.0,DE,269136.0,CRO,Cold,2004-05-06 00:00:00,2020-12-31 23:30:00,5607.0,0.9216,Yes,North,lat_band_4,North-East,52.838524526145775,gpp_var_bin_16,3.251148505947336,gpp_mean_bin_13
DE-Obe,ICOS2020,2008,2020,FLX_DE-Obe_FLUXNET2015_FULLSET_MM_2008-2020_beta-3.csv,True,ENF,734.0,50.78666,13.72129,Oberbrenburg,26,4,Dfb,Cold,C3,0.0,data_full_half_hourly_raw_v0_1_DE-Obe.csv,89318203.0,DE,217488.0,ENF,Cold,2008-01-25 00:00:00,2020-12-31 23:30:00,4531.0,0.95894,Yes,North,lat_band_4,North-East,57.65654929727078,gpp_var_bin_18,4.60066821412335,gpp_mean_bin_21
DE-RuR,ICOS2020,2011,2020,FLX_DE-RuR_FLUXNET2015_FULLSET_MM_2011-2020_beta-3.csv,True,GRA,514.7,50.62191,6.30413,Rollesbroich,26,4,Dfb,Cold,C3,0.0,data_full_half_hourly_raw_v0_1_DE-RuR.csv,73696557.0,DE,167328.0,GRA,Cold,2011-05-14 00:00:00,2020-12-31 23:30:00,3486.0,0.99034,Yes,North,lat_band_4,North-East,65.62165933908935,gpp_var_bin_20,5.054870624685662,gpp_mean_bin_22
DE-RuS,ICOS2020,2011,2020,FLX_DE-RuS_FLUXNET2015_FULLSET_MM_2011-2020_beta-3.csv,True,CRO,102.755,50.86591,6.44714,Selhausen Juelich,15,3,Cfb,Temperate,C3,0.0,data_full_half_hourly_raw_v0_1_DE-RuS.csv,68115777.0,DE,151584.0,CRO,Temperate,2011-04-29 00:00:00,2020-12-31 23:30:00,3158.0,0.89335,Yes,North,lat_band_4,,,,,
DE-RuW,ICOS2020,2012,2020,FLX_DE-RuW_FLUXNET2015_FULLSET_MM_2012-2020_beta-3.csv,True,ENF,610.0,50.50493,6.3309627,Wustebach,26,4,Dfb,Cold,C3,0.0,data_full_half_hourly_raw_v0_1_DE-RuW.csv,49450745.0,DE,119376.0,ENF,Cold,2012-01-13 00:00:00,2020-12-31 23:30:00,2487.0,0.75916,Yes,North,lat_band_4,,,,,
DE-Tha,ICOS2020,1996,2020,FLX_DE-Tha_FLUXNET2015_FULLSET_MM_1996-2020_beta-3.csv,True,ENF,385.0,50.96256,13.56515,Tharandt,26,4,Dfb,Cold,C3,0.0,data_full_half_hourly_raw_v0_1_DE-Tha.csv,172205243.0,DE,420480.0,ENF,Cold,1996-06-30 00:00:00,2020-12-10 23:30:00,8760.0,0.98096,Yes,North,lat_band_4,North-East,37.05933917267353,gpp_var_bin_11,3.8569602749936602,gpp_mean_bin_15
DK-Gds,ICOS2020,2020,2020,FLX_DK-Gds_FLUXNET2015_FULLSET_MM_2020-2020_beta-3.csv,False,ENF,86.0,56.0737,9.3341,Gludsted Plantage,26,4,Dfb,Cold,C3,0.0,data_full_half_hourly_raw_v0_1_DK-Gds.csv,2632580.0,DK,7632.0,ENF,Cold,2020-07-09 00:00:00,2020-12-14 23:30:00,159.0,1.0,No,North,lat_band_5,,,,,
DK-Sor,ICOS2020,1996,2020,FLX_DK-Sor_FLUXNET2015_FULLSET_MM_1996-2020_beta-3.csv,True,DBF,40.0,55.48587,11.64464,Soroe,26,4,Dfb,Cold,C3,0.0,data_full_half_hourly_raw_v0_1_DK-Sor.csv,161166588.0,DK,411360.0,DBF,Cold,1996-06-05 00:00:00,2020-12-31 23:30:00,8570.0,0.95477,Yes,North,lat_band_5,North-East,92.40781547025685,gpp_var_bin_24,5.45643514264375,gpp_mean_bin_23
ES-Abr,ICOS2020,2015,2020,FLX_ES-Abr_FLUXNET2015_FULLSET_MM_2015-2020_beta-3.csv,True,WSA,279.0,38.701839,-6.785881,Albuera,8,3,Csa,Temperate,C3,1.13,data_full_half_hourly_raw_v0_1_ES-Abr.csv,40330319.0,ES,88656.0,WSA,Temperate,2015-11-05 00:00:00,2020-12-31 23:30:00,1847.0,0.98036,Yes,North,lat_band_4,,,,,
ES-Agu,ICOS2020,2006,2020,FLX_ES-Agu_FLUXNET2015_FULLSET_MM_2006-2020_beta-3.csv,False,OSH,202.0,36.940046,-2.033208,Aguamarga,5,2,BWk,Arid,C3,0.0,data_full_half_hourly_raw_v0_1_ES-Agu.csv,90715299.0,ES,200640.0,OSH,Arid,2006-06-12 00:00:00,2020-12-31 23:30:00,4180.0,0.78616,Yes,North,lat_band_4,,,,,
ES-Cnd,ICOS2020,2014,2020,FLX_ES-Cnd_FLUXNET2015_FULLSET_MM_2014-2020_beta-3.csv,False,EBF,366.0,37.914998,-3.227659,Conde,7,2,BSk,Arid,C3,1.77,data_full_half_hourly_raw_v0_1_ES-Cnd.csv,29195813.0,ES,69456.0,EBF,Arid,2014-11-28 00:00:00,2020-12-31 23:30:00,1447.0,0.65004,No,North,lat_band_4,,,,,
ES-LJu,ICOS2020,2004,2020,FLX_ES-LJu_FLUXNET2015_FULLSET_MM_2004-2020_beta-3.csv,True,OSH,1600.0,36.92659,-2.75212,Llano de los Juanes,8,3,Csa,Temperate,C3,0.0,data_full_half_hourly_raw_v0_1_ES-LJu.csv,111661016.0,ES,239616.0,OSH,Temperate,2004-05-26 00:00:00,2020-12-31 23:30:00,4992.0,0.82322,Yes,North,lat_band_4,North-West,1.2930916675383948,gpp_var_bin_1,0.3432035901513371,gpp_mean_bin_1
ES-LM1,ICOS2020,2014,2020,FLX_ES-LM1_FLUXNET2015_FULLSET_MM_2014-2020_beta-3.csv,True,WSA,266.0,39.94269,-5.778683,Majadas del Tietar North,7,2,BSk,Arid,C3,1.3,data_full_half_hourly_raw_v0_1_ES-LM1.csv,53061973.0,ES,119232.0,WSA,Arid,2014-03-15 00:00:00,2020-12-31 23:30:00,2484.0,1.0,Yes,North,lat_band_4,North-West,25.765598429298496,gpp_var_bin_9,3.1890922289801336,gpp_mean_bin_12
ES-LM2,ICOS2020,2014,2020,FLX_ES-LM2_FLUXNET2015_FULLSET_MM_2014-2020_beta-3.csv,True,WSA,270.0,39.934592,-5.775881,Majadas del Tietar South,7,2,BSk,Arid,C3,1.3,data_full_half_hourly_raw_v0_1_ES-LM2.csv,52203259.0,ES,117408.0,WSA,Arid,2014-03-15 00:00:00,2020-12-31 23:30:00,2446.0,0.9847,Yes,North,lat_band_4,North-West,24.90661102654562,gpp_var_bin_8,3.2308812665218354,gpp_mean_bin_13
FI-Hyy,ICOS2020,1996,2020,FLX_FI-Hyy_FLUXNET2015_FULLSET_MM_1996-2020_beta-3.csv,True,ENF,181.0,61.84741,24.29477,Hyytiala,27,4,Dfc,Cold,C3,0.0,data_full_half_hourly_raw_v0_1_FI-Hyy.csv,163943523.0,FI,407472.0,ENF,Cold,1996-06-18 00:00:00,2020-12-31 23:30:00,8489.0,0.94712,Yes,North,lat_band_5,North-East,28.1687002618486,gpp_var_bin_9,3.0670719949742384,gpp_mean_bin_11
FI-Ken,ICOS2020,2018,2020,FLX_FI-Ken_FLUXNET2015_FULLSET_MM_2018-2020_beta-3.csv,False,ENF,347.0,67.98721,24.24301,Kenttarova,27,4,Dfc,Cold,C3,0.0,data_full_half_hourly_raw_v0_1_FI-Ken.csv,17845432.0,FI,48240.0,ENF,Cold,2018-01-01 00:00:00,2020-12-31 23:30:00,1005.0,0.91697,Yes,North,lat_band_5,,,,,
FI-Let,ICOS2020,2009,2020,FLX_FI-Let_FLUXNET2015_FULLSET_MM_2009-2020_beta-3.csv,True,ENF,125.0,60.64183,23.95952,Lettosuo,27,4,Dfc,Cold,C3,0.0,data_full_half_hourly_raw_v0_1_FI-Let.csv,74777444.0,FI,180096.0,ENF,Cold,2009-09-03 00:00:00,2020-12-31 23:30:00,3752.0,0.90672,Yes,North,lat_band_5,North-East,37.67884806193229,gpp_var_bin_12,3.167957157815199,gpp_mean_bin_11
FI-Qvd,ICOS2020,2018,2020,FLX_FI-Qvd_FLUXNET2015_FULLSET_MM_2018-2020_beta-3.csv,False,CRO,10.0,60.295242,22.391607,Qvidja,26,4,Dfb,Cold,C3,0.0,data_full_half_hourly_raw_v0_1_FI-Qvd.csv,16935457.0,FI,41664.0,CRO,Cold,2018-05-04 00:00:00,2020-12-31 23:30:00,868.0,0.89209,Yes,North,lat_band_5,,,,,
FI-Sii,ICOS2020,2016,2020,FLX_FI-Sii_FLUXNET2015_FULLSET_MM_2016-2020_beta-3.csv,True,GRA,160.0,61.83265,24.19285,Siikaneva,27,4,Dfc,Cold,C3,0.0,data_full_half_hourly_raw_v0_1_FI-Sii.csv,33630964.0,FI,83808.0,GRA,Cold,2016-02-26 00:00:00,2020-12-31 23:30:00,1746.0,0.98588,Yes,North,lat_band_5,,,,,
FI-Var,ICOS2020,2016,2020,FLX_FI-Var_FLUXNET2015_FULLSET_MM_2016-2020_beta-3.csv,True,ENF,395.0,67.7549,29.61,Varrio,27,4,Dfc,Cold,C3,0.0,data_full_half_hourly_raw_v0_1_FI-Var.csv,36525144.0,FI,86544.0,ENF,Cold,2016-01-01 00:00:00,2020-12-31 23:30:00,1803.0,0.98686,Yes,North,lat_band_5,,,,,
FR-Aur,ICOS2020,2005,2020,FLX_FR-Aur_FLUXNET2015_FULLSET_MM_2005-2020_beta-3.csv,False,CRO,250.0,43.54965,1.106103,Aurade,14,3,Cfa,Temperate,C3,3.1,data_full_half_hourly_raw_v0_1_FR-Aur.csv,121682635.0,FR,269904.0,CRO,Temperate,2005-03-13 00:00:00,2020-12-31 23:30:00,5623.0,0.97402,Yes,North,lat_band_4,North-East,48.552884814776284,gpp_var_bin_14,3.074137536982299,gpp_mean_bin_11
FR-Bil,ICOS2020,2014,2020,FLX_FR-Bil_FLUXNET2015_FULLSET_MM_2014-2020_beta-3.csv,True,ENF,39.0,44.493652,-0.956092,Bilos,15,3,Cfb,Temperate,C3,0.0,data_full_half_hourly_raw_v0_1_FR-Bil.csv,51091184.0,FR,111216.0,ENF,Temperate,2014-07-14 00:00:00,2020-12-31 23:30:00,2317.0,0.98053,Yes,North,lat_band_4,North-West,50.13770858903848,gpp_var_bin_15,4.818831285031352,gpp_mean_bin_21
FR-FBn,ICOS2020,2008,2020,FLX_FR-FBn_FLUXNET2015_FULLSET_MM_2008-2020_beta-3.csv,False,MF,436.0,43.24079,5.67865,Font-Blanche,8,3,Csa,Temperate,C3,0.0,data_full_half_hourly_raw_v0_1_FR-FBn.csv,92065342.0,FR,220560.0,MF,Temperate,2008-01-15 00:00:00,2020-12-31 23:30:00,4595.0,0.97043,Yes,North,lat_band_4,North-East,36.551906187692495,gpp_var_bin_11,4.406727630093481,gpp_mean_bin_20
FR-Fon,ICOS2020,2005,2020,FLX_FR-Fon_FLUXNET2015_FULLSET_MM_2005-2020_beta-3.csv,True,DBF,103.0,48.47636,2.7801,Fontainebleau-Barbeau,15,3,Cfb,Temperate,C3,7.34,data_full_half_hourly_raw_v0_1_FR-Fon.csv,109981671.0,FR,262224.0,DBF,Temperate,2005-03-11 00:00:00,2020-12-31 23:30:00,5463.0,0.94597,Yes,North,lat_band_4,North-East,88.08087949389028,gpp_var_bin_23,4.895131853954971,gpp_mean_bin_22
FR-Gri,ICOS2020,2004,2020,FLX_FR-Gri_FLUXNET2015_FULLSET_MM_2004-2020_beta-3.csv,True,CRO,125.0,48.84422,1.95191,Grignon,15,3,Cfb,Temperate,rotation,6.49,data_full_half_hourly_raw_v0_1_FR-Gri.csv,107330916.0,FR,241440.0,CRO,Temperate,2004-05-15 00:00:00,2020-12-31 23:30:00,5030.0,0.82798,Yes,North,lat_band_4,,,,,
FR-Hes,ICOS2020,2014,2020,FLX_FR-Hes_FLUXNET2015_FULLSET_MM_2014-2020_beta-3.csv,True,DBF,310.0,48.6741,7.06465,Hesse,15,3,Cfb,Temperate,C3,3.18,data_full_half_hourly_raw_v0_1_FR-Hes.csv,54128991.0,FR,121536.0,DBF,Temperate,2014-01-01 00:00:00,2020-12-31 23:30:00,2532.0,0.99022,Yes,North,lat_band_4,North-East,91.84418559735248,gpp_var_bin_24,5.029926212546192,gpp_mean_bin_22
FR-LGt,ICOS2020,2017,2020,FLX_FR-LGt_FLUXNET2015_FULLSET_MM_2017-2020_beta-3.csv,False,WET,153.0,47.322917,2.284102,La Guette,15,3,Cfb,Temperate,C3,3.82,data_full_half_hourly_raw_v0_1_FR-LGt.csv,25211279.0,FR,60528.0,WET,Temperate,2017-01-27 00:00:00,2020-12-12 23:30:00,1261.0,0.89054,Yes,North,lat_band_4,,,,,
FR-Lam,ICOS2020,2005,2020,FLX_FR-Lam_FLUXNET2015_FULLSET_MM_2005-2020_beta-3.csv,False,CRO,180.0,43.496437,1.237878,Lamasquere,14,3,Cfa,Temperate,rotation,3.1,data_full_half_hourly_raw_v0_1_FR-Lam.csv,116021526.0,FR,259296.0,CRO,Temperate,2005-03-13 00:00:00,2020-12-31 23:30:00,5402.0,0.93574,Yes,North,lat_band_4,North-East,68.56915832659423,gpp_var_bin_21,3.4341496546423538,gpp_mean_bin_13
FR-Tou,ICOS2020,2018,2020,FLX_FR-Tou_FLUXNET2015_FULLSET_MM_2018-2020_beta-3.csv,False,GRA,158.0,43.572857,1.37474,Toulouse,14,3,Cfa,Temperate,unknown,3.1,data_full_half_hourly_raw_v0_1_FR-Tou.csv,22849769.0,FR,52608.0,GRA,Temperate,2018-01-01 00:00:00,2020-12-31 23:30:00,1096.0,1.0,Yes,North,lat_band_4,,,,,
GF-Guy,ICOS2020,2004,2020,FLX_GF-Guy_FLUXNET2015_FULLSET_MM_2004-2020_beta-3.csv,True,EBF,48.0,5.27877,-52.92486,Guyaflux (French Guiana),2,1,Am,Tropical,C3,0.0,data_full_half_hourly_raw_v0_1_GF-Guy.csv,100119719.0,GF,289008.0,EBF,Tropical,2004-01-01 00:00:00,2020-12-31 23:30:00,6021.0,0.96957,Yes,North,lat_band_3,North-West,150.48846728353885,gpp_var_bin_25,9.122726475614868,gpp_mean_bin_25
GL-Dsk,ICOS2020,2020,2020,FLX_GL-Dsk_FLUXNET2015_FULLSET_MM_2020-2020_beta-3.csv,False,OSH,8.0,69.25349,-53.51413,Disko,29,5,ET,Polar,C3,0.0,data_full_half_hourly_raw_v0_1_GL-Dsk.csv,5184735.0,GL,17568.0,OSH,Polar,2020-01-01 00:00:00,2020-12-31 23:30:00,366.0,1.0,No,North,lat_band_5,,,,,
IE-Cra,ICOS2020,2020,2020,FLX_IE-Cra_FLUXNET2015_FULLSET_MM_2020-2020_beta-3.csv,False,WET,56.0,53.3229785,-7.641769,Clara,15,3,Cfb,Temperate,C3,0.0,data_full_half_hourly_raw_v0_1_IE-Cra.csv,6989126.0,IE,17568.0,WET,Temperate,2020-01-01 00:00:00,2020-12-31 23:30:00,366.0,1.0,No,North,lat_band_4,,,,,
IL-Yat,ICOS2020,2000,2020,FLX_IL-Yat_FLUXNET2015_FULLSET_MM_2000-2020_beta-3.csv,False,ENF,657.0,31.34504459,35.05198851,Yatir,7,2,BSk,Arid,C3,0.0,data_full_half_hourly_raw_v0_1_IL-Yat.csv,139597716.0,IL,318048.0,ENF,Arid,2000-10-01 00:00:00,2020-12-31 23:30:00,6626.0,0.89577,Yes,North,lat_band_4,North-East,9.508004632548893,gpp_var_bin_4,1.6540006584531952,gpp_mean_bin_5
IT-BCi,ICOS2020,2004,2020,FLX_IT-BCi_FLUXNET2015_FULLSET_MM_2004-2020_beta-3.csv,True,CRO,20.0,40.52375,14.95744,Borgo Cioffi,8,3,Csa,Temperate,C4,0.0,data_full_half_hourly_raw_v0_1_IT-BCi.csv,113718403.0,IT,258720.0,CRO,Temperate,2004-05-22 00:00:00,2020-12-31 23:30:00,5390.0,0.88827,Yes,North,lat_band_4,North-East,96.67605215126588,gpp_var_bin_24,5.282743477801241,gpp_mean_bin_23
IT-BFt,ICOS2020,2019,2020,FLX_IT-BFt_FLUXNET2015_FULLSET_MM_2019-2020_beta-3.csv,False,DBF,23.0,45.197754,10.741966,Bosco Fontana,14,3,Cfa,Temperate,C3,2.31,data_full_half_hourly_raw_v0_1_IT-BFt.csv,14513933.0,IT,35088.0,DBF,Temperate,2019-01-01 00:00:00,2020-12-31 23:30:00,731.0,1.0,No,North,lat_band_4,,,,,
IT-Cp2,ICOS2020,2012,2020,FLX_IT-Cp2_FLUXNET2015_FULLSET_MM_2012-2020_beta-3.csv,True,EBF,19.0,41.70427,12.35729,Castelporziano2,8,3,Csa,Temperate,C3,0.0,data_full_half_hourly_raw_v0_1_IT-Cp2.csv,44850529.0,IT,101328.0,EBF,Temperate,2012-01-26 00:00:00,2020-11-05 23:30:00,2111.0,0.65825,Yes,North,lat_band_4,,,,,
IT-Lav,ICOS2020,2003,2020,FLX_IT-Lav_FLUXNET2015_FULLSET_MM_2003-2020_beta-3.csv,True,ENF,1353.0,45.9562,11.28132,Lavarone,26,4,Dfb,Cold,C3,3.57,data_full_half_hourly_raw_v0_1_IT-Lav.csv,131501705.0,IT,297840.0,ENF,Cold,2003-01-01 00:00:00,2020-12-31 23:30:00,6205.0,0.94373,Yes,North,lat_band_4,North-East,84.63217862638987,gpp_var_bin_23,6.213218633675828,gpp_mean_bin_24
IT-Lsn,ICOS2020,2016,2020,FLX_IT-Lsn_FLUXNET2015_FULLSET_MM_2016-2020_beta-3.csv,True,OSH,1.0,45.740482,12.750297,Lison,14,3,Cfa,Temperate,C3,2.7,data_full_half_hourly_raw_v0_1_IT-Lsn.csv,36898890.0,IT,82656.0,OSH,Temperate,2016-01-01 00:00:00,2020-12-31 23:30:00,1722.0,0.94253,Yes,North,lat_band_4,,,,,
IT-MBo,ICOS2020,2003,2020,FLX_IT-MBo_FLUXNET2015_FULLSET_MM_2003-2020_beta-3.csv,True,GRA,1550.0,46.01468,11.04583,Monte Bondone,26,4,Dfb,Cold,C3,1.37,data_full_half_hourly_raw_v0_1_IT-MBo.csv,130550141.0,IT,298752.0,GRA,Cold,2003-01-01 00:00:00,2020-10-15 23:30:00,6224.0,0.95783,Yes,North,lat_band_4,North-East,58.545051801248356,gpp_var_bin_18,4.020579636897954,gpp_mean_bin_17
IT-Ren,ICOS2020,1999,2020,FLX_IT-Ren_FLUXNET2015_FULLSET_MM_1999-2020_beta-3.csv,True,ENF,1730.0,46.58686,11.43369,Renon,27,4,Dfc,Cold,C3,1.37,data_full_half_hourly_raw_v0_1_IT-Ren.csv,141412352.0,IT,325632.0,ENF,Cold,1999-01-01 00:00:00,2020-12-31 23:30:00,6784.0,0.8442,Yes,North,lat_band_4,North-East,49.593309361368,gpp_var_bin_15,3.9076195865251484,gpp_mean_bin_16
IT-SR2,ICOS2020,2013,2020,FLX_IT-SR2_FLUXNET2015_FULLSET_MM_2013-2020_beta-3.csv,True,ENF,4.0,43.73202,10.29091,San Rossore 2,8,3,Csa,Temperate,C3,0.0,data_full_half_hourly_raw_v0_1_IT-SR2.csv,61127288.0,IT,133920.0,ENF,Temperate,2013-01-01 00:00:00,2020-12-31 23:30:00,2790.0,0.95483,Yes,North,lat_band_4,North-East,91.15090781708031,gpp_var_bin_24,6.973128743142217,gpp_mean_bin_25
IT-Tor,ICOS2020,2008,2020,FLX_IT-Tor_FLUXNET2015_FULLSET_MM_2008-2020_beta-3.csv,True,GRA,2160.0,45.84444,7.57806,Torgnon,27,4,Dfc,Cold,C3,1.76,data_full_half_hourly_raw_v0_1_IT-Tor.csv,88055350.0,IT,212592.0,GRA,Cold,2008-06-22 00:00:00,2020-12-31 23:30:00,4429.0,0.96788,Yes,North,lat_band_4,North-East,30.980014336109036,gpp_var_bin_10,2.4221586859756887,gpp_mean_bin_7
RU-Fy2,ICOS2020,2015,2020,FLX_RU-Fy2_FLUXNET2015_FULLSET_MM_2015-2020_beta-3.csv,True,ENF,276.0,56.4476,32.9019,Fyodorovskoye dry spruce,26,4,Dfb,Cold,C3,0.85,data_full_half_hourly_raw_v0_1_RU-Fy2.csv,42292776.0,RU,98544.0,ENF,Cold,2015-05-09 00:00:00,2020-12-31 23:30:00,2053.0,0.99467,Yes,North,lat_band_5,,,,,
RU-Fyo,ICOS2020,1998,2020,FLX_RU-Fyo_FLUXNET2015_FULLSET_MM_1998-2020_beta-3.csv,True,ENF,265.0,56.46153,32.92208,Fyodorovskoye,26,4,Dfb,Cold,C3,0.85,data_full_half_hourly_raw_v0_1_RU-Fyo.csv,149557583.0,RU,361824.0,ENF,Cold,1998-07-07 00:00:00,2020-12-31 23:30:00,7538.0,0.9177,Yes,North,lat_band_5,North-East,46.386037358337646,gpp_var_bin_14,3.945698642776536,gpp_mean_bin_16
SE-Deg,ICOS2020,2001,2020,FLX_SE-Deg_FLUXNET2015_FULLSET_MM_2001-2020_beta-3.csv,True,WET,270.0,64.182029,19.556539,Degero,27,4,Dfc,Cold,C3,0.0,data_full_half_hourly_raw_v0_1_SE-Deg.csv,139158505.0,SE,328176.0,WET,Cold,2001-01-01 00:00:00,2020-12-31 23:30:00,6837.0,0.93593,Yes,North,lat_band_5,North-East,2.396176384239474,gpp_var_bin_2,0.73467578283373,gpp_mean_bin_2
SE-Htm,ICOS2020,2015,2020,FLX_SE-Htm_FLUXNET2015_FULLSET_MM_2015-2020_beta-3.csv,True,ENF,115.0,56.09763,13.41897,Hyltemossa,26,4,Dfb,Cold,C3,0.0,data_full_half_hourly_raw_v0_1_SE-Htm.csv,45101667.0,SE,103488.0,ENF,Cold,2015-01-01 00:00:00,2020-12-31 23:30:00,2156.0,0.98358,Yes,North,lat_band_5,North-East,74.31681789154766,gpp_var_bin_22,5.7435455208208746,gpp_mean_bin_24
SE-Nor,ICOS2020,2014,2020,FLX_SE-Nor_FLUXNET2015_FULLSET_MM_2014-2020_beta-3.csv,True,ENF,45.0,60.0865,17.479504,Norunda,26,4,Dfb,Cold,C3,0.0,data_full_half_hourly_raw_v0_1_SE-Nor.csv,51766595.0,SE,120768.0,ENF,Cold,2014-01-01 00:00:00,2020-12-31 23:30:00,2516.0,0.98397,Yes,North,lat_band_5,North-East,41.38318938488789,gpp_var_bin_12,3.9808931803569547,gpp_mean_bin_16
SE-Ros,ICOS2020,2014,2020,FLX_SE-Ros_FLUXNET2015_FULLSET_MM_2014-2020_beta-3.csv,True,ENF,157.0,64.1725,19.738,Rosinedal-3,27,4,Dfc,Cold,C3,0.0,data_full_half_hourly_raw_v0_1_SE-Ros.csv,47093878.0,SE,111216.0,ENF,Cold,2014-07-23 00:00:00,2020-12-31 23:30:00,2317.0,0.98428,Yes,North,lat_band_5,North-East,20.390097882639132,gpp_var_bin_7,2.551391122680212,gpp_mean_bin_7
SE-Svb,ICOS2020,2014,2020,FLX_SE-Svb_FLUXNET2015_FULLSET_MM_2014-2020_beta-3.csv,True,ENF,267.0,64.25611,19.7745,Svartberget,27,4,Dfc,Cold,C3,0.0,data_full_half_hourly_raw_v0_1_SE-Svb.csv,39241279.0,SE,92400.0,ENF,Cold,2014-04-04 00:00:00,2020-12-31 23:30:00,1925.0,0.78125,Yes,North,lat_band_5,,,,,
DE-Hte,ICOS2018,2009,2018,FLX_DE-Hte_FLUXNET2015_FULLSET_MM_2009-2018_beta-3.csv,False,WET,1.0,54.210278,12.176111,Huetelmoor,15,3,Cfb,Temperate,C3,0.0,data_full_half_hourly_raw_v0_1_DE-Hte.csv,59752741.0,DE,141696.0,WET,Temperate,2009-01-01 00:00:00,2018-12-01 23:30:00,2952.0,0.81502,Yes,North,lat_band_5,North-East,25.120930362824158,gpp_var_bin_9,2.6685743000606474,gpp_mean_bin_8
FR-EM2,ICOS2018,2017,2018,FLX_FR-EM2_FLUXNET2015_FULLSET_MM_2017-2018_beta-3.csv,False,CRO,,49.87211,3.02065,Estrees-Mons A28,15,3,Cfb,Temperate,mix,6.69,data_full_half_hourly_raw_v0_1_FR-EM2.csv,12403011.0,FR,34128.0,CRO,Temperate,2017-01-01 00:00:00,2018-12-31 23:30:00,711.0,0.97397,No,North,lat_band_4,,,,,
NL-Loo,ICOS2018,1996,2018,FLX_NL-Loo_FLUXNET2015_FULLSET_MM_1996-2018_beta-3.csv,True,ENF,25.0,52.16658,5.74356,Loobos,15,3,Cfb,Temperate,C3,0.0,data_full_half_hourly_raw_v0_1_NL-Loo.csv,144465890.0,NL,353760.0,ENF,Temperate,1996-07-22 00:00:00,2018-09-11 23:30:00,7370.0,0.91134,Yes,North,lat_band_4,North-East,48.25490170239653,gpp_var_bin_14,4.447111605924227,gpp_mean_bin_20
SE-Lnn,ICOS2018,2014,2018,FLX_SE-Lnn_FLUXNET2015_FULLSET_MM_2014-2018_beta-3.csv,False,CRO,71.0,58.34063,13.10177,Lanna,26,4,Dfb,Cold,C3,0.0,data_full_half_hourly_raw_v0_1_SE-Lnn.csv,32921480.0,SE,80400.0,CRO,Cold,2014-01-01 00:00:00,2018-12-31 23:30:00,1675.0,0.91731,Yes,North,lat_band_5,North-East,39.52739315778205,gpp_var_bin_12,2.447539092302887,gpp_mean_bin_7
